"city","city_ascii","lat","lng","country","iso2","iso3","admin_name","capital","population","id"
"Berlin","Berlin","52.5200","13.4050","Germany","DE","DEU","Berlin","primary","4890363","1276451290"
"Stuttgart","Stuttgart","48.7775","9.1800","Germany","DE","DEU","Baden-Württemberg","admin","2787724","1276171358"
"Munich","Munich","48.1375","11.5750","Germany","DE","DEU","Bavaria","admin","2606021","1276692352"
"Hamburg","Hamburg","53.5500","10.0000","Germany","DE","DEU","Hamburg","admin","2484800","1276041799"
"Cologne","Cologne","50.9364","6.9528","Germany","DE","DEU","North Rhine-Westphalia","","1084831","1276015998"
"Frankfurt","Frankfurt","50.1106","8.6822","Germany","DE","DEU","Hesse","minor","773068","1276054552"
"Düsseldorf","Dusseldorf","51.2333","6.7833","Germany","DE","DEU","North Rhine-Westphalia","admin","629047","1276615258"
"Leipzig","Leipzig","51.3400","12.3750","Germany","DE","DEU","Saxony","minor","616093","1276563678"
"Dortmund","Dortmund","51.5139","7.4653","Germany","DE","DEU","North Rhine-Westphalia","minor","593317","1276562886"
"Essen","Essen","51.4508","7.0131","Germany","DE","DEU","North Rhine-Westphalia","minor","584580","1276769247"
"Bremen","Bremen","53.0758","8.8072","Germany","DE","DEU","Bremen","admin","569396","1276376509"
"Dresden","Dresden","51.0500","13.7400","Germany","DE","DEU","Saxony","admin","563311","1276561036"
"Hannover","Hannover","52.3667","9.7167","Germany","DE","DEU","Lower Saxony","admin","545045","1276457707"
"Nuremberg","Nuremberg","49.4539","11.0775","Germany","DE","DEU","Bavaria","minor","523026","1276166609"
"Duisburg","Duisburg","51.4347","6.7625","Germany","DE","DEU","North Rhine-Westphalia","minor","502211","1276977172"
"Bochum","Bochum","51.4819","7.2158","Germany","DE","DEU","North Rhine-Westphalia","minor","365742","1276227288"
"Wuppertal","Wuppertal","51.2667","7.1833","Germany","DE","DEU","North Rhine-Westphalia","minor","358876","1276004611"
"Bielefeld","Bielefeld","52.0211","8.5347","Germany","DE","DEU","North Rhine-Westphalia","minor","338332","1276112885"
"Bonn","Bonn","50.7333","7.1000","Germany","DE","DEU","North Rhine-Westphalia","minor","336465","1276807850"
"Münster","Munster","51.9625","7.6256","Germany","DE","DEU","North Rhine-Westphalia","minor","320946","1276714504"
"Mannheim","Mannheim","49.4878","8.4661","Germany","DE","DEU","Baden-Württemberg","minor","315554","1276150104"
"Karlsruhe","Karlsruhe","49.0092","8.4040","Germany","DE","DEU","Baden-Württemberg","minor","308707","1276923210"
"Augsburg","Augsburg","48.3689","10.8978","Germany","DE","DEU","Bavaria","minor","301033","1276314100"
"Wiesbaden","Wiesbaden","50.0825","8.2400","Germany","DE","DEU","Hesse","admin","283083","1276652118"
"Mönchengladbach","Monchengladbach","51.2000","6.4333","Germany","DE","DEU","North Rhine-Westphalia","minor","268465","1276982173"
"Gelsenkirchen","Gelsenkirchen","51.5167","7.1000","Germany","DE","DEU","North Rhine-Westphalia","minor","263000","1276788537"
"Aachen","Aachen","50.7756","6.0836","Germany","DE","DEU","North Rhine-Westphalia","minor","252136","1276805572"
"Braunschweig","Braunschweig","52.2667","10.5167","Germany","DE","DEU","Lower Saxony","minor","251804","1276941443"
"Chemnitz","Chemnitz","50.8333","12.9167","Germany","DE","DEU","Saxony","minor","248563","1276519956"
"Kiel","Kiel","54.3233","10.1394","Germany","DE","DEU","Schleswig-Holstein","admin","247717","1276305306"
"Halle","Halle","51.4828","11.9697","Germany","DE","DEU","Saxony-Anhalt","minor","242083","1276167077"
"Magdeburg","Magdeburg","52.1317","11.6392","Germany","DE","DEU","Saxony-Anhalt","admin","239364","1276418236"
"Freiburg im Breisgau","Freiburg im Breisgau","47.9950","7.8500","Germany","DE","DEU","Baden-Württemberg","minor","236140","1276371228"
"Krefeld","Krefeld","51.3333","6.5667","Germany","DE","DEU","North Rhine-Westphalia","minor","228426","1276149829"
"Mainz","Mainz","49.9994","8.2736","Germany","DE","DEU","Rhineland-Palatinate","admin","220552","1276801317"
"Lübeck","Lubeck","53.8697","10.6864","Germany","DE","DEU","Schleswig-Holstein","minor","218095","1276852342"
"Oberhausen","Oberhausen","51.4967","6.8706","Germany","DE","DEU","North Rhine-Westphalia","minor","210824","1276448936"
"Rostock","Rostock","54.0833","12.1333","Germany","DE","DEU","Mecklenburg-Western Pomerania","","209920","1276210265"
"Kassel","Kassel","51.3158","9.4979","Germany","DE","DEU","Hesse","minor","204202","1276791686"
"Hagen","Hagen","51.3667","7.4833","Germany","DE","DEU","North Rhine-Westphalia","minor","189783","1276389303"
"Potsdam","Potsdam","52.4000","13.0667","Germany","DE","DEU","Brandenburg","admin","185750","1276395100"
"Saarbrücken","Saarbrucken","49.2333","7.0000","Germany","DE","DEU","Saarland","admin","181959","1276419711"
"Hamm","Hamm","51.6667","7.8167","Germany","DE","DEU","North Rhine-Westphalia","minor","180849","1276808737"
"Ludwigshafen","Ludwigshafen","49.4811","8.4353","Germany","DE","DEU","Rhineland-Palatinate","minor","174265","1276912330"
"Oldenburg","Oldenburg","53.1439","8.2139","Germany","DE","DEU","Lower Saxony","minor","172830","1276946953"
"Mülheim","Mulheim","51.4275","6.8825","Germany","DE","DEU","North Rhine-Westphalia","minor","172404","1276676856"
"Osnabrück","Osnabruck","52.2833","8.0500","Germany","DE","DEU","Lower Saxony","minor","167366","1276554949"
"Leverkusen","Leverkusen","51.0333","6.9833","Germany","DE","DEU","North Rhine-Westphalia","minor","165748","1276002465"
"Heidelberg","Heidelberg","49.4167","8.7167","Germany","DE","DEU","Baden-Württemberg","minor","162273","1276519742"
"Darmstadt","Darmstadt","49.8722","8.6528","Germany","DE","DEU","Hesse","minor","162243","1276607395"
"Solingen","Solingen","51.1667","7.0833","Germany","DE","DEU","North Rhine-Westphalia","minor","160643","1276728190"
"Regensburg","Regensburg","49.0167","12.0833","Germany","DE","DEU","Bavaria","minor","157443","1276000325"
"Herne","Herne","51.5500","7.2167","Germany","DE","DEU","North Rhine-Westphalia","minor","157368","1276656117"
"Paderborn","Paderborn","51.7181","8.7542","Germany","DE","DEU","North Rhine-Westphalia","minor","154755","1276339087"
"Neuss","Neuss","51.2000","6.7000","Germany","DE","DEU","North Rhine-Westphalia","minor","154139","1276075502"
"Ingolstadt","Ingolstadt","48.7631","11.4250","Germany","DE","DEU","Bavaria","minor","141029","1276803150"
"Fürth","Furth","49.4667","11.0000","Germany","DE","DEU","Bavaria","minor","131433","1276580165"
"Ulm","Ulm","48.4000","9.9833","Germany","DE","DEU","Baden-Württemberg","minor","128928","1276002212"
"Heilbronn","Heilbronn","49.1500","9.2167","Germany","DE","DEU","Baden-Württemberg","minor","128334","1276377359"
"Pforzheim","Pforzheim","48.8950","8.7050","Germany","DE","DEU","Baden-Württemberg","minor","127849","1276732622"
"Würzburg","Wurzburg","49.7833","9.9333","Germany","DE","DEU","Bavaria","minor","127810","1276233514"
"Wolfsburg","Wolfsburg","52.4231","10.7872","Germany","DE","DEU","Lower Saxony","minor","125961","1276033981"
"Göttingen","Gottingen","51.5339","9.9356","Germany","DE","DEU","Lower Saxony","minor","118946","1276211234"
"Bottrop","Bottrop","51.5247","6.9228","Germany","DE","DEU","North Rhine-Westphalia","minor","118113","1276473363"
"Reutlingen","Reutlingen","48.4833","9.2167","Germany","DE","DEU","Baden-Württemberg","minor","117547","1276256795"
"Erlangen","Erlangen","49.5833","11.0167","Germany","DE","DEU","Bavaria","minor","116562","1276339482"
"Bremerhaven","Bremerhaven","53.5500","8.5833","Germany","DE","DEU","Bremen","","115468","1276991229"
"Koblenz","Koblenz","50.3597","7.5978","Germany","DE","DEU","Rhineland-Palatinate","minor","115268","1276605495"
"Bergisch Gladbach","Bergisch Gladbach","50.9918","7.1303","Germany","DE","DEU","North Rhine-Westphalia","minor","112712","1276074373"
"Remscheid","Remscheid","51.1833","7.2000","Germany","DE","DEU","North Rhine-Westphalia","minor","112613","1276043920"
"Trier","Trier","49.7567","6.6414","Germany","DE","DEU","Rhineland-Palatinate","minor","112195","1276211430"
"Recklinghausen","Recklinghausen","51.5850","7.1619","Germany","DE","DEU","North Rhine-Westphalia","minor","111734","1276179876"
"Jena","Jena","50.9272","11.5861","Germany","DE","DEU","Thuringia","minor","111191","1276659978"
"Moers","Moers","51.4592","6.6197","Germany","DE","DEU","North Rhine-Westphalia","","105287","1276257182"
"Salzgitter","Salzgitter","52.1500","10.3333","Germany","DE","DEU","Lower Saxony","minor","104548","1276613066"
"Siegen","Siegen","50.8833","8.0167","Germany","DE","DEU","North Rhine-Westphalia","minor","102560","1276268768"
"Gütersloh","Gutersloh","51.9000","8.3833","Germany","DE","DEU","North Rhine-Westphalia","minor","102393","1276587494"
"Hildesheim","Hildesheim","52.1500","9.9500","Germany","DE","DEU","Lower Saxony","minor","101858","1276244190"
"Hanau","Hanau","50.1328","8.9169","Germany","DE","DEU","Hesse","minor","101364","1276550409"
"Kaiserslautern","Kaiserslautern","49.4447","7.7689","Germany","DE","DEU","Rhineland-Palatinate","minor","101228","1276674534"
"Cottbus","Cottbus","51.7606","14.3342","Germany","DE","DEU","Brandenburg","minor","99515","1276436655"
"Schwerin","Schwerin","53.6333","11.4167","Germany","DE","DEU","Mecklenburg-Western Pomerania","admin","98596","1276221707"
"Witten","Witten","51.4333","7.3333","Germany","DE","DEU","North Rhine-Westphalia","","95897","1276004960"
"Esslingen","Esslingen","48.7333","9.3167","Germany","DE","DEU","Baden-Württemberg","minor","94941","1276510955"
"Ludwigsburg","Ludwigsburg","48.8975","9.1922","Germany","DE","DEU","Baden-Württemberg","minor","94157","1276803720"
"Gießen","Giessen","50.5833","8.6667","Germany","DE","DEU","Hesse","minor","94146","1276576770"
"Gera","Gera","50.8806","12.0833","Germany","DE","DEU","Thuringia","minor","93634","1276548165"
"Düren","Duren","50.8000","6.4833","Germany","DE","DEU","North Rhine-Westphalia","minor","93207","1276181957"
"Tübingen","Tubingen","48.5200","9.0556","Germany","DE","DEU","Baden-Württemberg","minor","92811","1276203240"
"Flensburg","Flensburg","54.7819","9.4367","Germany","DE","DEU","Schleswig-Holstein","minor","92550","1276853315"
"Iserlohn","Iserlohn","51.3833","7.6667","Germany","DE","DEU","North Rhine-Westphalia","","92540","1276837267"
"Villingen-Schwenningen","Villingen-Schwenningen","48.0603","8.4586","Germany","DE","DEU","Baden-Württemberg","minor","88213","1276450523"
"Ratingen","Ratingen","51.3000","6.8500","Germany","DE","DEU","North Rhine-Westphalia","","87388","1276005433"
"Zwickau","Zwickau","50.7167","12.5000","Germany","DE","DEU","Saxony","minor","87172","1276683623"
"Lünen","Lunen","51.6167","7.5167","Germany","DE","DEU","North Rhine-Westphalia","","86868","1276959723"
"Konstanz","Konstanz","47.6667","9.1833","Germany","DE","DEU","Baden-Württemberg","","85859","1276601373"
"Worms","Worms","49.6319","8.3653","Germany","DE","DEU","Rhineland-Palatinate","minor","84646","1276944683"
"Marl","Marl","51.6667","7.1167","Germany","DE","DEU","North Rhine-Westphalia","","84331","1276451667"
"Minden","Minden","52.2883","8.9167","Germany","DE","DEU","North Rhine-Westphalia","minor","83076","1276191164"
"Velbert","Velbert","51.3333","7.0500","Germany","DE","DEU","North Rhine-Westphalia","","82445","1276896645"
"Norderstedt","Norderstedt","53.7064","10.0103","Germany","DE","DEU","Schleswig-Holstein","","81880","1276872953"
"Bamberg","Bamberg","49.8914","10.8869","Germany","DE","DEU","Bavaria","minor","79935","1276824274"
"Dessau-Rosslau","","51.8333","12.2333","Germany","DE","DEU","Saxony-Anhalt","minor","79655","1276983641"
"Neumünster","Neumunster","54.0714","9.9900","Germany","DE","DEU","Schleswig-Holstein","minor","79502","1276757733"
"Delmenhorst","Delmenhorst","53.0506","8.6317","Germany","DE","DEU","Lower Saxony","minor","78385","1276098664"
"Viersen","Viersen","51.2561","6.3972","Germany","DE","DEU","North Rhine-Westphalia","minor","78208","1276629059"
"Rheine","Rheine","52.2833","7.4333","Germany","DE","DEU","North Rhine-Westphalia","","77893","1276882978"
"Marburg","Marburg","50.8100","8.7708","Germany","DE","DEU","Hesse","minor","77845","1276012023"
"Lüneburg","Luneburg","53.2525","10.4144","Germany","DE","DEU","Lower Saxony","minor","76837","1276001423"
"Dorsten","Dorsten","51.6600","6.9642","Germany","DE","DEU","North Rhine-Westphalia","","76720","1276397774"
"Troisdorf","Troisdorf","50.8161","7.1556","Germany","DE","DEU","North Rhine-Westphalia","","76251","1276488227"
"Wilhelmshaven","Wilhelmshaven","53.5286","8.1056","Germany","DE","DEU","Lower Saxony","minor","76089","1276324633"
"Gladbeck","Gladbeck","51.5667","6.9667","Germany","DE","DEU","North Rhine-Westphalia","","75889","1276216238"
"Landshut","Landshut","48.5397","12.1508","Germany","DE","DEU","Bavaria","minor","75457","1276485277"
"Detmold","Detmold","51.9378","8.8833","Germany","DE","DEU","North Rhine-Westphalia","minor","75089","1276802316"
"Bayreuth","Bayreuth","49.9481","11.5783","Germany","DE","DEU","Bavaria","minor","74506","1276275069"
"Arnsberg","Arnsberg","51.3833","8.0833","Germany","DE","DEU","North Rhine-Westphalia","","74323","1276285824"
"Castrop-Rauxel","Castrop-Rauxel","51.5500","7.3167","Germany","DE","DEU","North Rhine-Westphalia","","73795","1276873073"
"Brandenburg","Brandenburg","52.4167","12.5333","Germany","DE","DEU","Brandenburg","minor","73609","1276372220"
"Aschaffenburg","Aschaffenburg","49.9667","9.1500","Germany","DE","DEU","Bavaria","minor","72444","1276069907"
"Bocholt","Bocholt","51.8333","6.6167","Germany","DE","DEU","North Rhine-Westphalia","","71930","1276001655"
"Lüdenscheid","Ludenscheid","51.2167","7.6333","Germany","DE","DEU","North Rhine-Westphalia","minor","71865","1276839426"
"Celle","Celle","52.6256","10.0825","Germany","DE","DEU","Lower Saxony","minor","70138","1276282135"
"Kempten","Kempten","47.7333","10.3167","Germany","DE","DEU","Bavaria","minor","70056","1276008842"
"Fulda","Fulda","50.5508","9.6753","Germany","DE","DEU","Hesse","minor","69968","1276669051"
"Lippstadt","Lippstadt","51.6667","8.3500","Germany","DE","DEU","North Rhine-Westphalia","","68890","1276820778"
"Aalen","Aalen","48.8333","10.1000","Germany","DE","DEU","Baden-Württemberg","minor","68816","1276757787"
"Dinslaken","Dinslaken","51.5667","6.7333","Germany","DE","DEU","North Rhine-Westphalia","","67762","1276055868"
"Herford","Herford","52.1333","8.6833","Germany","DE","DEU","North Rhine-Westphalia","minor","67459","1276588147"
"Rüsselsheim","Russelsheim","50.0000","8.4333","Germany","DE","DEU","Hesse","","67277","1276969472"
"Kerpen","Kerpen","50.8719","6.6961","Germany","DE","DEU","North Rhine-Westphalia","","67239","1276675138"
"Neuwied","Neuwied","50.4286","7.4614","Germany","DE","DEU","Rhineland-Palatinate","minor","65986","1276935443"
"Weimar","Weimar","50.9811","11.3294","Germany","DE","DEU","Thuringia","minor","65620","1276053525"
"Dormagen","Dormagen","51.1000","6.8167","Germany","DE","DEU","North Rhine-Westphalia","","65147","1276688551"
"Sindelfingen","Sindelfingen","48.7133","9.0028","Germany","DE","DEU","Baden-Württemberg","","64995","1276001469"
"Plauen","Plauen","50.4833","12.1167","Germany","DE","DEU","Saxony","minor","64763","1276134198"
"Grevenbroich","Grevenbroich","51.0883","6.5875","Germany","DE","DEU","North Rhine-Westphalia","","64596","1276215861"
"Rosenheim","Rosenheim","47.8500","12.1333","Germany","DE","DEU","Bavaria","minor","64403","1276301675"
"Neubrandenburg","Neubrandenburg","53.5569","13.2611","Germany","DE","DEU","Mecklenburg-Western Pomerania","minor","63989","1276954105"
"Friedrichshafen","Friedrichshafen","47.6500","9.4833","Germany","DE","DEU","Baden-Württemberg","","62932","1276002705"
"Herten","Herten","51.6000","7.1333","Germany","DE","DEU","North Rhine-Westphalia","","62473","1276440470"
"Bergheim","Bergheim","50.9667","6.6500","Germany","DE","DEU","North Rhine-Westphalia","minor","62376","1276980188"
"Schwäbisch Gmünd","Schwabisch Gmund","48.8000","9.8000","Germany","DE","DEU","Baden-Württemberg","","62325","1276897251"
"Offenburg","Offenburg","48.4667","7.9333","Germany","DE","DEU","Baden-Württemberg","minor","61670","1276214401"
"Garbsen","Garbsen","52.4183","9.5981","Germany","DE","DEU","Lower Saxony","","61349","1276318243"
"Wesel","Wesel","51.6586","6.6178","Germany","DE","DEU","North Rhine-Westphalia","minor","61330","1276261527"
"Neu-Ulm","Neu-Ulm","48.3833","10.0000","Germany","DE","DEU","Baden-Württemberg","minor","61043","1276071813"
"Hürth","Hurth","50.8775","6.8761","Germany","DE","DEU","North Rhine-Westphalia","","60969","1276025332"
"Unna","Unna","51.5347","7.6889","Germany","DE","DEU","North Rhine-Westphalia","minor","60892","1276028114"
"Langenfeld","Langenfeld","51.1167","6.9500","Germany","DE","DEU","North Rhine-Westphalia","","59783","1276016003"
"Euskirchen","Euskirchen","50.6597","6.7917","Germany","DE","DEU","North Rhine-Westphalia","minor","59772","1276782162"
"Greifswald","Greifswald","54.0833","13.3833","Germany","DE","DEU","Mecklenburg-Western Pomerania","minor","59691","1276867765"
"Stralsund","Stralsund","54.3092","13.0819","Germany","DE","DEU","Mecklenburg-Western Pomerania","minor","59363","1276640152"
"Göppingen","Goppingen","48.7025","9.6528","Germany","DE","DEU","Baden-Württemberg","minor","59053","1276730715"
"Frankfurt (Oder)","Frankfurt (Oder)","52.3419","14.5517","Germany","DE","DEU","Brandenburg","minor","58230","1276397323"
"Hameln","Hameln","52.1000","9.3667","Germany","DE","DEU","Lower Saxony","minor","57905","1276101153"
"Meerbusch","Meerbusch","51.2667","6.6667","Germany","DE","DEU","North Rhine-Westphalia","","57422","1276882223"
"Baden-Baden","Baden-Baden","48.7628","8.2408","Germany","DE","DEU","Baden-Württemberg","minor","57025","1276150269"
"Görlitz","Gorlitz","51.1528","14.9872","Germany","DE","DEU","Saxony","minor","56574","1276000121"
"Lingen","Lingen","52.5231","7.3231","Germany","DE","DEU","Lower Saxony","","56542","1276978218"
"Stolberg","Stolberg","50.7667","6.2333","Germany","DE","DEU","North Rhine-Westphalia","","56455","1276202704"
"Sankt Augustin","Sankt Augustin","50.7700","7.1867","Germany","DE","DEU","North Rhine-Westphalia","","56369","1276196312"
"Waiblingen","Waiblingen","48.8303","9.3169","Germany","DE","DEU","Baden-Württemberg","minor","56081","1276678986"
"Eschweiler","Eschweiler","50.8167","6.2833","Germany","DE","DEU","North Rhine-Westphalia","","56049","1276835632"
"Hilden","Hilden","51.1714","6.9394","Germany","DE","DEU","North Rhine-Westphalia","","55815","1276577152"
"Pulheim","Pulheim","51.0000","6.8000","Germany","DE","DEU","North Rhine-Westphalia","","55530","1276728926"
"Langenhagen","Langenhagen","52.4394","9.7400","Germany","DE","DEU","Lower Saxony","","55367","1276031765"
"Nordhorn","Nordhorn","52.4319","7.0678","Germany","DE","DEU","Lower Saxony","minor","55242","1276078036"
"Bad Homburg","Bad Homburg","50.2167","8.6000","Germany","DE","DEU","Hesse","minor","54996","1276019348"
"Bad Salzuflen","Bad Salzuflen","52.0833","8.7467","Germany","DE","DEU","North Rhine-Westphalia","","54808","1276526163"
"Schweinfurt","Schweinfurt","50.0500","10.2333","Germany","DE","DEU","Bavaria","","54675","1276316912"
"Hattingen","Hattingen","51.3992","7.1858","Germany","DE","DEU","North Rhine-Westphalia","","54637","1276698647"
"Wetzlar","Wetzlar","50.5667","8.5000","Germany","DE","DEU","Hesse","minor","54187","1276020868"
"Neustadt","Neustadt","49.3500","8.1500","Germany","DE","DEU","Rhineland-Palatinate","minor","53981","1276053769"
"Passau","Passau","48.5744","13.4647","Germany","DE","DEU","Bavaria","minor","53907","1276123699"
"Kleve","Kleve","51.7900","6.1400","Germany","DE","DEU","North Rhine-Westphalia","minor","53388","1276674243"
"Ahlen","Ahlen","51.7633","7.8911","Germany","DE","DEU","North Rhine-Westphalia","","53348","1276843072"
"Frechen","Frechen","50.9167","6.8167","Germany","DE","DEU","North Rhine-Westphalia","","52811","1276255319"
"Wolfenbüttel","Wolfenbuttel","52.1622","10.5369","Germany","DE","DEU","Lower Saxony","minor","52681","1276388010"
"Bad Kreuznach","Bad Kreuznach","49.8500","7.8667","Germany","DE","DEU","Rhineland-Palatinate","minor","52529","1276733459"
"Ibbenbüren","Ibbenburen","52.2778","7.7167","Germany","DE","DEU","North Rhine-Westphalia","","52421","1276476330"
"Gummersbach","Gummersbach","51.0333","7.5667","Germany","DE","DEU","North Rhine-Westphalia","minor","52001","1276576027"
"Ravensburg","Ravensburg","47.7831","9.6114","Germany","DE","DEU","Baden-Württemberg","minor","51482","1276088263"
"Böblingen","Boblingen","48.6856","9.0153","Germany","DE","DEU","Baden-Württemberg","minor","51460","1276001231"
"Peine","Peine","52.3203","10.2336","Germany","DE","DEU","Lower Saxony","minor","51411","1276331439"
"Speyer","Speyer","49.3194","8.4311","Germany","DE","DEU","Rhineland-Palatinate","minor","51368","1276684984"
"Rastatt","Rastatt","48.8500","8.2000","Germany","DE","DEU","Baden-Württemberg","minor","51310","1276684629"
"Elmshorn","Elmshorn","53.7519","9.6511","Germany","DE","DEU","Schleswig-Holstein","","50772","1276091723"
"Emden","Emden","53.3669","7.2061","Germany","DE","DEU","Lower Saxony","minor","50535","1276309938"
"Goslar","Goslar","51.9072","10.4300","Germany","DE","DEU","Lower Saxony","minor","50203","1276608610"
"Willich","Willich","51.2631","6.5492","Germany","DE","DEU","North Rhine-Westphalia","","50144","1276849706"
"Heidenheim","Heidenheim","48.6761","10.1544","Germany","DE","DEU","Baden-Württemberg","minor","50025","1276168895"
"Erftstadt","Erftstadt","50.8167","6.7667","Germany","DE","DEU","North Rhine-Westphalia","","49882","1276479094"
"Lörrach","Lorrach","47.6167","7.6667","Germany","DE","DEU","Baden-Württemberg","minor","49876","1276104619"
"Cuxhaven","Cuxhaven","53.8611","8.6944","Germany","DE","DEU","Lower Saxony","minor","49854","1276511789"
"Gronau","Gronau","52.2125","7.0417","Germany","DE","DEU","North Rhine-Westphalia","","49824","1276262054"
"Leonberg","Leonberg","48.8014","9.0131","Germany","DE","DEU","Baden-Württemberg","","49512","1276002040"
"Rheda-Wiedenbrück","Rheda-Wiedenbruck","51.8417","8.3000","Germany","DE","DEU","North Rhine-Westphalia","","49486","1276045371"
"Bad Oeynhausen","Bad Oeynhausen","52.2000","8.8000","Germany","DE","DEU","North Rhine-Westphalia","","49477","1276503412"
"Singen","Singen","47.7628","8.8400","Germany","DE","DEU","Baden-Württemberg","","49441","1276550938"
"Freising","Freising","48.4028","11.7489","Germany","DE","DEU","Bavaria","minor","49339","1276519005"
"Bergkamen","Bergkamen","51.6167","7.6333","Germany","DE","DEU","North Rhine-Westphalia","","49263","1276603807"
"Straubing","Straubing","48.8833","12.5667","Germany","DE","DEU","Bavaria","minor","49164","1276278805"
"Frankenthal","Frankenthal","49.5333","8.3500","Germany","DE","DEU","Rhineland-Palatinate","minor","49051","1276888667"
"Bornheim","Bornheim","50.7592","7.0050","Germany","DE","DEU","North Rhine-Westphalia","","49025","1276585020"
"Soest","Soest","51.5711","8.1092","Germany","DE","DEU","North Rhine-Westphalia","minor","48607","1276851034"
"Stade","Stade","53.6008","9.4764","Germany","DE","DEU","Lower Saxony","minor","48353","1276472720"
"Alsdorf","Alsdorf","50.8833","6.1667","Germany","DE","DEU","North Rhine-Westphalia","","48328","1276261156"
"Dachau","Dachau","48.2603","11.4342","Germany","DE","DEU","Bavaria","minor","48195","1276549079"
"Hennef","Hennef","50.7833","7.2833","Germany","DE","DEU","North Rhine-Westphalia","","48002","1276962178"
"Oranienburg","Oranienburg","52.7544","13.2369","Germany","DE","DEU","Brandenburg","minor","47752","1276677137"
"Landau","Landau","49.2000","8.1167","Germany","DE","DEU","Rhineland-Palatinate","minor","47610","1276000837"
"Dülmen","Dulmen","51.8308","7.2783","Germany","DE","DEU","North Rhine-Westphalia","","47468","1276703649"
"Melle","Melle","52.2044","8.3389","Germany","DE","DEU","Lower Saxony","","47228","1276489872"
"Herzogenrath","Herzogenrath","50.8667","6.1000","Germany","DE","DEU","North Rhine-Westphalia","","46941","1276873875"
"Neunkirchen","Neunkirchen","49.3500","7.1667","Germany","DE","DEU","Saarland","minor","46882","1276274217"
"Schwerte","Schwerte","51.4458","7.5653","Germany","DE","DEU","North Rhine-Westphalia","","46658","1276720376"
"Hof","Hof","50.3167","11.9167","Germany","DE","DEU","Bavaria","minor","46656","1276561363"
"Bruchsal","Bruchsal","49.1333","8.6000","Germany","DE","DEU","Baden-Württemberg","","46587","1276034362"
"Rodgau","Rodgau","50.0167","8.8833","Germany","DE","DEU","Hesse","","46426","1276173536"
"Albstadt","Albstadt","48.2119","9.0239","Germany","DE","DEU","Baden-Württemberg","","46422","1276969750"
"Halle-Neustadt","Halle-Neustadt","51.4789","11.9214","Germany","DE","DEU","Saxony-Anhalt","","46280","1276281757"
"Filderstadt","Filderstadt","48.6803","9.2183","Germany","DE","DEU","Baden-Württemberg","","46188","1276952389"
"Bünde","Bunde","52.2000","8.6000","Germany","DE","DEU","North Rhine-Westphalia","","46030","1276719683"
"Gotha","Gotha","50.9492","10.7050","Germany","DE","DEU","Thuringia","minor","46019","1276679639"
"Fellbach","Fellbach","48.8086","9.2758","Germany","DE","DEU","Baden-Württemberg","","45896","1276083210"
"Memmingen","Memmingen","47.9878","10.1811","Germany","DE","DEU","Bavaria","minor","45857","1276229376"
"Kaufbeuren","Kaufbeuren","47.8800","10.6225","Germany","DE","DEU","Bavaria","minor","45792","1276496301"
"Weinheim","Weinheim","49.5500","8.6667","Germany","DE","DEU","Baden-Württemberg","","45275","1276001742"
"Neustadt am Rübenberge","Neustadt am Rubenberge","52.5000","9.4667","Germany","DE","DEU","Lower Saxony","","45262","1276887904"
"Lehrte","Lehrte","52.3667","9.9667","Germany","DE","DEU","Lower Saxony","","44823","1276716840"
"Falkensee","Falkensee","52.5583","13.0917","Germany","DE","DEU","Brandenburg","","44806","1276126886"
"Brühl","Bruhl","50.8333","6.9000","Germany","DE","DEU","North Rhine-Westphalia","","44804","1276307796"
"Pinneberg","Pinneberg","53.6333","9.8000","Germany","DE","DEU","Schleswig-Holstein","minor","44279","1276865707"
"Kaarst","Kaarst","51.2167","6.6167","Germany","DE","DEU","North Rhine-Westphalia","","44253","1276322915"
"Erkelenz","Erkelenz","51.0833","6.3167","Germany","DE","DEU","North Rhine-Westphalia","","44215","1276067473"
"Wismar","Wismar","53.9000","11.4667","Germany","DE","DEU","Mecklenburg-Western Pomerania","minor","43878","1276660084"
"Erkrath","Erkrath","51.2239","6.9147","Germany","DE","DEU","North Rhine-Westphalia","","43856","1276917229"
"Bietigheim-Bissingen","Bietigheim-Bissingen","48.9667","9.1333","Germany","DE","DEU","Baden-Württemberg","","43755","1276916733"
"Gifhorn","Gifhorn","52.4886","10.5464","Germany","DE","DEU","Lower Saxony","minor","43625","1276793894"
"Borken","Borken","51.8333","6.8667","Germany","DE","DEU","North Rhine-Westphalia","minor","43489","1276778327"
"Heinsberg","Heinsberg","51.0631","6.0964","Germany","DE","DEU","North Rhine-Westphalia","minor","43476","1276000099"
"Nettetal","Nettetal","51.3167","6.2833","Germany","DE","DEU","North Rhine-Westphalia","","43095","1276049262"
"Kamen","Kamen","51.5917","7.6653","Germany","DE","DEU","North Rhine-Westphalia","","43058","1276465116"
"Aurich","Aurich","53.4714","7.4836","Germany","DE","DEU","Lower Saxony","minor","42970","1276424784"
"Laatzen","Laatzen","52.3167","9.8000","Germany","DE","DEU","Lower Saxony","","42675","1276954154"
"Amberg","Amberg","49.4444","11.8483","Germany","DE","DEU","Bavaria","minor","42534","1276551955"
"Seevetal","Seevetal","53.3833","9.9667","Germany","DE","DEU","Lower Saxony","","42449","1276709038"
"Eisenach","Eisenach","50.9761","10.3206","Germany","DE","DEU","Thuringia","minor","42408","1276000880"
"Homburg","Homburg","49.3167","7.3333","Germany","DE","DEU","Saarland","minor","42297","1276520056"
"Dreieich","Dreieich","50.0000","8.7000","Germany","DE","DEU","Hesse","","42260","1276481123"
"Ansbach","Ansbach","49.3000","10.5833","Germany","DE","DEU","Bavaria","minor","42221","1276572551"
"Bensheim","Bensheim","49.6667","8.6167","Germany","DE","DEU","Hesse","","42089","1276256416"
"Siegburg","Siegburg","50.8014","7.2044","Germany","DE","DEU","North Rhine-Westphalia","minor","42049","1276838674"
"Kirchheim unter Teck","Kirchheim unter Teck","48.6483","9.4511","Germany","DE","DEU","Baden-Württemberg","","41907","1276389368"
"Schwäbisch Hall","Schwabisch Hall","49.1122","9.7375","Germany","DE","DEU","Baden-Württemberg","minor","41898","1276556451"
"Coburg","Coburg","50.2667","10.9667","Germany","DE","DEU","Bavaria","minor","41842","1276428862"
"Wunstorf","Wunstorf","52.4275","9.4294","Germany","DE","DEU","Lower Saxony","","41689","1276079483"
"Königswinter","Konigswinter","50.6736","7.1947","Germany","DE","DEU","North Rhine-Westphalia","","41495","1276951419"
"Eberswalde","Eberswalde","52.8333","13.8333","Germany","DE","DEU","Brandenburg","minor","41461","1276311453"
"Nürtingen","Nurtingen","48.6333","9.3333","Germany","DE","DEU","Baden-Württemberg","","41403","1276408465"
"Germering","Germering","48.1333","11.3667","Germany","DE","DEU","Bavaria","","41355","1276002965"
"Nordhausen","Nordhausen","51.5050","10.7911","Germany","DE","DEU","Thuringia","minor","41339","1276946322"
"Hückelhoven","Huckelhoven","51.0608","6.2197","Germany","DE","DEU","North Rhine-Westphalia","","41301","1276391695"
"Schwabach","Schwabach","49.3292","11.0208","Germany","DE","DEU","Bavaria","minor","41227","1276017987"
"Buxtehude","Buxtehude","53.4769","9.7011","Germany","DE","DEU","Lower Saxony","","40919","1276767530"
"Buchholz in der Nordheide","Buchholz in der Nordheide","53.3167","9.8667","Germany","DE","DEU","Lower Saxony","","40810","1276859084"
"Neumarkt","Neumarkt","49.2833","11.4667","Germany","DE","DEU","Bavaria","minor","40808","1276002746"
"Pirmasens","Pirmasens","49.2000","7.6000","Germany","DE","DEU","Rhineland-Palatinate","minor","40682","1276000134"
"Lemgo","Lemgo","52.0272","8.9117","Germany","DE","DEU","North Rhine-Westphalia","","40594","1276164957"
"Freiberg","Freiberg","50.9119","13.3428","Germany","DE","DEU","Saxony","minor","40485","1276914988"
"Halberstadt","Halberstadt","51.8958","11.0467","Germany","DE","DEU","Saxony-Anhalt","minor","40457","1276900818"
"Leinfelden-Echterdingen","Leinfelden-Echterdingen","48.6928","9.1428","Germany","DE","DEU","Baden-Württemberg","","40420","1276447188"
"Hofheim","Hofheim","50.0833","8.4500","Germany","DE","DEU","Hesse","minor","40371","1276364825"
"Löhne","Lohne","52.2000","8.7000","Germany","DE","DEU","North Rhine-Westphalia","","40265","1276788847"
"Ahaus","Ahaus","52.0667","7.0000","Germany","DE","DEU","North Rhine-Westphalia","","40245","1276411347"
"Schorndorf","Schorndorf","48.8000","9.5333","Germany","DE","DEU","Baden-Württemberg","","40204","1276068626"
"Völklingen","Volklingen","49.2500","6.8333","Germany","DE","DEU","Saarland","","40192","1276052749"
"Maintal","Maintal","50.1500","8.8333","Germany","DE","DEU","Hesse","","39815","1276616960"
"Ostfildern","Ostfildern","48.7333","9.2500","Germany","DE","DEU","Baden-Württemberg","","39806","1276855000"
"Ettlingen","Ettlingen","48.9333","8.4000","Germany","DE","DEU","Baden-Württemberg","","39699","1276126657"
"Freital","Freital","51.0167","13.6500","Germany","DE","DEU","Saxony","","39558","1276672229"
"Neu Isenburg","Neu Isenburg","50.0500","8.7000","Germany","DE","DEU","Hesse","","39287","1276467901"
"Niederkassel","Niederkassel","50.8167","7.0333","Germany","DE","DEU","North Rhine-Westphalia","","39281","1276316077"
"Langen","Langen","49.9833","8.6667","Germany","DE","DEU","Hesse","","39217","1276365275"
"Mettmann","Mettmann","51.2500","6.9667","Germany","DE","DEU","North Rhine-Westphalia","minor","39134","1276000749"
"Ilmenau","Ilmenau","50.6839","10.9194","Germany","DE","DEU","Thuringia","","39127","1276541405"
"Stendal","Stendal","52.6000","11.8500","Germany","DE","DEU","Saxony-Anhalt","minor","39105","1276016814"
"Pirna","Pirna","50.9622","13.9403","Germany","DE","DEU","Saxony","minor","39054","1276247543"
"Weißenfels","Weissenfels","51.2000","11.9667","Germany","DE","DEU","Saxony-Anhalt","","39041","1276292106"
"Königs Wusterhausen","Konigs Wusterhausen","52.2917","13.6250","Germany","DE","DEU","Brandenburg","","38929","1276871907"
"Kamp-Lintfort","Kamp-Lintfort","51.5000","6.5333","Germany","DE","DEU","North Rhine-Westphalia","","38665","1276081102"
"Würselen","Wurselen","50.8167","6.1333","Germany","DE","DEU","North Rhine-Westphalia","","38598","1276620771"
"Papenburg","Papenburg","53.0667","7.4000","Germany","DE","DEU","Lower Saxony","","38556","1276460693"
"Greven","Greven","52.0917","7.6083","Germany","DE","DEU","North Rhine-Westphalia","","38207","1276669554"
"Wesseling","Wesseling","50.8167","6.9667","Germany","DE","DEU","North Rhine-Westphalia","","38192","1276392642"
"Kehl","Kehl","48.5667","7.8167","Germany","DE","DEU","Baden-Württemberg","","38154","1276615908"
"Bautzen","Bautzen","51.1814","14.4242","Germany","DE","DEU","Saxony","minor","38140","1276088190"
"Backnang","Backnang","48.9464","9.4306","Germany","DE","DEU","Baden-Württemberg","","37957","1276031423"
"Bitterfeld","Bitterfeld","51.6167","12.3167","Germany","DE","DEU","Saxony-Anhalt","","37894","1276169908"
"Fürstenfeldbruck","Furstenfeldbruck","48.1778","11.2556","Germany","DE","DEU","Bavaria","minor","37695","1276347995"
"Warendorf","Warendorf","51.9539","7.9933","Germany","DE","DEU","North Rhine-Westphalia","minor","37616","1276005733"
"Tuttlingen","Tuttlingen","47.9850","8.8233","Germany","DE","DEU","Baden-Württemberg","minor","37458","1276649477"
"Beckum","Beckum","51.7550","8.0403","Germany","DE","DEU","North Rhine-Westphalia","","37333","1276000534"
"Cloppenburg","Cloppenburg","52.8500","8.0500","Germany","DE","DEU","Lower Saxony","minor","37056","1276769960"
"Coesfeld","Coesfeld","51.9500","7.1667","Germany","DE","DEU","North Rhine-Westphalia","minor","37030","1276053897"
"Suhl","Suhl","50.6106","10.6931","Germany","DE","DEU","Thuringia","minor","37009","1276059886"
"Erding","Erding","48.2833","11.9000","Germany","DE","DEU","Bavaria","minor","36813","1276458355"
"Sinsheim","Sinsheim","49.2500","8.8833","Germany","DE","DEU","Baden-Württemberg","","36601","1276820270"
"Porta Westfalica","Porta Westfalica","52.2167","8.9333","Germany","DE","DEU","North Rhine-Westphalia","","36374","1276426167"
"Emsdetten","Emsdetten","52.1728","7.5344","Germany","DE","DEU","North Rhine-Westphalia","","36354","1276439566"
"Winsen","Winsen","53.3667","10.2167","Germany","DE","DEU","Lower Saxony","minor","36295","1276491512"
"Mühlhausen","Muhlhausen","51.2167","10.4500","Germany","DE","DEU","Thuringia","minor","36226","1276181580"
"Voerde","Voerde","51.6000","6.6833","Germany","DE","DEU","North Rhine-Westphalia","","36196","1276242749"
"Meppen","Meppen","52.6936","7.2928","Germany","DE","DEU","Lower Saxony","minor","36117","1276180771"
"Limburg","Limburg","50.3833","8.0667","Germany","DE","DEU","Hesse","minor","36053","1276188257"
"Ingelheim","Ingelheim","49.9747","8.0564","Germany","DE","DEU","Rhineland-Palatinate","minor","36002","1276699130"
"Crailsheim","Crailsheim","49.1347","10.0706","Germany","DE","DEU","Baden-Württemberg","","35760","1276001596"
"Bad Vilbel","Bad Vilbel","50.1781","8.7361","Germany","DE","DEU","Hesse","","35758","1276387851"
"Leer","Leer","53.2308","7.4528","Germany","DE","DEU","Lower Saxony","minor","35663","1276392695"
"Lage","Lage","51.9889","8.7944","Germany","DE","DEU","North Rhine-Westphalia","","35423","1276243855"
"Mörfelden-Walldorf","Morfelden-Walldorf","50.0000","8.5833","Germany","DE","DEU","Hesse","","35291","1276425407"
"Goch","Goch","51.6839","6.1619","Germany","DE","DEU","North Rhine-Westphalia","","35270","1276890926"
"Sankt Ingbert","Sankt Ingbert","49.3000","7.1167","Germany","DE","DEU","Saarland","","35216","1276174089"
"Datteln","Datteln","51.6539","7.3417","Germany","DE","DEU","North Rhine-Westphalia","","35191","1276259793"
"Deggendorf","Deggendorf","48.8333","12.9667","Germany","DE","DEU","Bavaria","minor","35172","1276512590"
"Barsinghausen","Barsinghausen","52.3000","9.4811","Germany","DE","DEU","Lower Saxony","","35156","1276183527"
"Steinfurt","Steinfurt","52.1475","7.3442","Germany","DE","DEU","North Rhine-Westphalia","minor","35102","1276842137"
"Balingen","Balingen","48.2731","8.8506","Germany","DE","DEU","Baden-Württemberg","minor","34945","1276586382"
"Dietzenbach","Dietzenbach","50.0167","8.7833","Germany","DE","DEU","Hesse","","34928","1276741284"
"Kempen","Kempen","51.3658","6.4194","Germany","DE","DEU","North Rhine-Westphalia","","34841","1276967592"
"Seelze","Seelze","52.3961","9.5981","Germany","DE","DEU","Lower Saxony","","34742","1276781689"
"Wermelskirchen","Wermelskirchen","51.1500","7.2167","Germany","DE","DEU","North Rhine-Westphalia","","34739","1276444512"
"Saarlouis","Saarlouis","49.3167","6.7500","Germany","DE","DEU","Saarland","minor","34717","1276663502"
"Wedel","Wedel","53.5833","9.7000","Germany","DE","DEU","Schleswig-Holstein","","34538","1276016066"
"Zweibrücken","Zweibrucken","49.2500","7.3667","Germany","DE","DEU","Rhineland-Palatinate","minor","34534","1276900149"
"Viernheim","Viernheim","49.5417","8.5786","Germany","DE","DEU","Hesse","","34534","1276924320"
"Ahrensburg","Ahrensburg","53.6747","10.2411","Germany","DE","DEU","Schleswig-Holstein","","34509","1276744963"
"Merseburg","Merseburg","51.3544","11.9928","Germany","DE","DEU","Saxony-Anhalt","minor","34335","1276735436"
"Geldern","Geldern","51.5197","6.3325","Germany","DE","DEU","North Rhine-Westphalia","","34298","1276273584"
"Korschenbroich","Korschenbroich","51.1833","6.5167","Germany","DE","DEU","North Rhine-Westphalia","","34187","1276206387"
"Kornwestheim","Kornwestheim","48.8598","9.1852","Germany","DE","DEU","Baden-Württemberg","","34130","1276918130"
"Radebeul","Radebeul","51.1000","13.6500","Germany","DE","DEU","Saxony","","34096","1276277969"
"Hemer","Hemer","51.3833","7.7667","Germany","DE","DEU","North Rhine-Westphalia","","34024","1276327126"
"Biberach","Biberach","48.1000","9.7833","Germany","DE","DEU","Baden-Württemberg","minor","34008","1276241010"
"Stuhr","Stuhr","53.0167","8.7500","Germany","DE","DEU","Lower Saxony","","33952","1276158158"
"Uelzen","Uelzen","52.9647","10.5658","Germany","DE","DEU","Lower Saxony","minor","33934","1276042012"
"Vechta","Vechta","52.7306","8.2886","Germany","DE","DEU","Lower Saxony","minor","33769","1276147280"
"Rheinfelden (Baden)","Rheinfelden (Baden)","47.5611","7.7917","Germany","DE","DEU","Baden-Württemberg","","33581","1276547516"
"Schwedt (Oder)","Schwedt (Oder)","53.0500","14.2667","Germany","DE","DEU","Brandenburg","","33495","1276552729"
"Bad Nauheim","Bad Nauheim","50.3667","8.7500","Germany","DE","DEU","Hesse","","33445","1276664999"
"Jülich","Julich","50.9222","6.3583","Germany","DE","DEU","North Rhine-Westphalia","","33158","1276891190"
"Forchheim","Forchheim","49.7197","11.0581","Germany","DE","DEU","Bavaria","minor","32972","1276030665"
"Lampertheim","Lampertheim","49.6000","8.4667","Germany","DE","DEU","Hesse","","32870","1276406891"
"Delbrück","Delbruck","51.7667","8.5667","Germany","DE","DEU","North Rhine-Westphalia","","32774","1276424035"
"Achim","Achim","53.0653","9.0342","Germany","DE","DEU","Lower Saxony","","32752","1276242263"
"Herrenberg","Herrenberg","48.5967","8.8708","Germany","DE","DEU","Baden-Württemberg","","32649","1276549799"
"Fürstenwalde","Furstenwalde","52.3667","14.0667","Germany","DE","DEU","Brandenburg","","32646","1276767308"
"Geesthacht","Geesthacht","53.4375","10.3675","Germany","DE","DEU","Schleswig-Holstein","","32336","1276117326"
"Naumburg","Naumburg","51.1500","11.8167","Germany","DE","DEU","Saxony-Anhalt","minor","32289","1276335227"
"Bernburg","Bernburg","51.8000","11.7333","Germany","DE","DEU","Saxony-Anhalt","minor","32261","1276331294"
"Itzehoe","Itzehoe","53.9250","9.5164","Germany","DE","DEU","Schleswig-Holstein","minor","32258","1276277285"
"Georgsmarienhütte","Georgsmarienhutte","52.2000","8.0667","Germany","DE","DEU","Lower Saxony","","32190","1276001308"
"Bramsche","Bramsche","52.4000","7.9833","Germany","DE","DEU","Lower Saxony","","32179","1276405075"
"Radolfzell am Bodensee","Radolfzell am Bodensee","47.7333","8.9667","Germany","DE","DEU","Baden-Württemberg","","32043","1276934854"
"Wernigerode","Wernigerode","51.8350","10.7853","Germany","DE","DEU","Saxony-Anhalt","","32024","1276322228"
"Ganderkesee","Ganderkesee","53.0358","8.5483","Germany","DE","DEU","Lower Saxony","","31939","1276035845"
"Oer-Erkenschwick","Oer-Erkenschwick","51.6422","7.2508","Germany","DE","DEU","North Rhine-Westphalia","","31838","1276269090"
"Neuruppin","Neuruppin","52.9331","12.8000","Germany","DE","DEU","Brandenburg","minor","31422","1276820903"
"Hoyerswerda","Hoyerswerda","51.4333","14.2500","Germany","DE","DEU","Saxony","","31356","1276992982"
"Altenburg","Altenburg","50.9850","12.4333","Germany","DE","DEU","Thuringia","minor","31315","1276224301"
"Burgdorf","Burgdorf","52.4500","10.0083","Germany","DE","DEU","Lower Saxony","","31287","1276623419"
"Kreuztal","Kreuztal","50.9667","7.9667","Germany","DE","DEU","North Rhine-Westphalia","","31197","1276001601"
"Rheinberg","Rheinberg","51.5467","6.6006","Germany","DE","DEU","North Rhine-Westphalia","","31150","1276286236"
"Gevelsberg","Gevelsberg","51.3167","7.3333","Germany","DE","DEU","North Rhine-Westphalia","","31097","1276634761"
"Werl","Werl","51.5500","7.9200","Germany","DE","DEU","North Rhine-Westphalia","","31045","1276291604"
"Lohmar","Lohmar","50.8167","7.2167","Germany","DE","DEU","North Rhine-Westphalia","","30846","1276535520"
"Walsrode","Walsrode","52.8667","9.5833","Germany","DE","DEU","Lower Saxony","","30819","1276472764"
"Friedberg","Friedberg","50.3333","8.7500","Germany","DE","DEU","Hesse","minor","30818","1276800921"
"Taunusstein","Taunusstein","50.1333","8.1500","Germany","DE","DEU","Hesse","","30810","1276571090"
"Weil am Rhein","Weil am Rhein","47.5947","7.6108","Germany","DE","DEU","Baden-Württemberg","","30769","1276439955"
"Einbeck","Einbeck","51.8167","9.8667","Germany","DE","DEU","Lower Saxony","","30728","1276253461"
"Osterholz-Scharmbeck","Osterholz-Scharmbeck","53.2167","8.8000","Germany","DE","DEU","Lower Saxony","minor","30659","1276987274"
"Bad Hersfeld","Bad Hersfeld","50.8683","9.7075","Germany","DE","DEU","Hesse","minor","30652","1276923242"
"Ennepetal","Ennepetal","51.2833","7.3333","Germany","DE","DEU","North Rhine-Westphalia","","30652","1276394678"
"Haan","Haan","51.1667","7.0000","Germany","DE","DEU","North Rhine-Westphalia","","30542","1276168837"
"Neuburg","Neuburg","48.7333","11.1833","Germany","DE","DEU","Bavaria","minor","30467","1276560116"
"Friedberg","Friedberg","48.3500","10.9833","Germany","DE","DEU","Bavaria","","30407","1276408320"
"Schönebeck","Schonebeck","52.0167","11.7500","Germany","DE","DEU","Saxony-Anhalt","","30389","1276217785"
"Andernach","Andernach","50.4397","7.4017","Germany","DE","DEU","Rhineland-Palatinate","","30277","1276142194"
"Gaggenau","Gaggenau","48.8039","8.3194","Germany","DE","DEU","Baden-Württemberg","","30250","1276552610"
"Bretten","Bretten","49.0364","8.7061","Germany","DE","DEU","Baden-Württemberg","","30073","1276638008"
"Merzig","Merzig","49.4500","6.6167","Germany","DE","DEU","Saarland","minor","30051","1276524998"
"Meschede","Meschede","51.3500","8.2833","Germany","DE","DEU","North Rhine-Westphalia","minor","30025","1276139753"
"Schwandorf","Schwandorf","49.3283","12.1100","Germany","DE","DEU","Bavaria","minor","29990","1276268287"
"Rietberg","Rietberg","51.8000","8.4333","Germany","DE","DEU","North Rhine-Westphalia","","29919","1276651074"
"Bad Zwischenahn","Bad Zwischenahn","53.1836","8.0097","Germany","DE","DEU","Lower Saxony","","29803","1276503429"
"Rendsburg","Rendsburg","54.3000","9.6667","Germany","DE","DEU","Schleswig-Holstein","minor","29743","1276159889"
"Werve","Werve","51.6667","7.6167","Germany","DE","DEU","North Rhine-Westphalia","","29680","1276001404"
"Waltrop","Waltrop","51.6167","7.3833","Germany","DE","DEU","North Rhine-Westphalia","","29644","1276333081"
"Oelde","Oelde","51.8333","8.1500","Germany","DE","DEU","North Rhine-Westphalia","","29644","1276826099"
"Güstrow","Gustrow","53.7939","12.1764","Germany","DE","DEU","Mecklenburg-Western Pomerania","minor","29556","1276582967"
"Landsberg","Landsberg","48.0478","10.8989","Germany","DE","DEU","Bavaria","minor","29551","1276208782"
"Unterschleißheim","Unterschleissheim","48.2833","11.5667","Germany","DE","DEU","Bavaria","","29523","1276071648"
"Northeim","Northeim","51.7067","10.0011","Germany","DE","DEU","Lower Saxony","minor","29440","1276938853"
"Tönisvorst","Tonisvorst","51.3208","6.4931","Germany","DE","DEU","North Rhine-Westphalia","","29319","1276126819"
"Vaihingen an der Enz","Vaihingen an der Enz","48.9328","8.9564","Germany","DE","DEU","Baden-Württemberg","","29305","1276306973"
"Winnenden","Winnenden","48.8764","9.3978","Germany","DE","DEU","Baden-Württemberg","","29245","1276828910"
"Saalfeld","Saalfeld","50.6500","11.3667","Germany","DE","DEU","Thuringia","minor","29224","1276907261"
"Blankenfelde","Blankenfelde","52.3500","13.4000","Germany","DE","DEU","Brandenburg","","29159","1276580790"
"Bühl","Buhl","48.6953","8.1350","Germany","DE","DEU","Baden-Württemberg","","29133","1276639756"
"Springe","Springe","52.2167","9.5500","Germany","DE","DEU","Lower Saxony","","29113","1276257894"
"Kelkheim (Taunus)","Kelkheim (Taunus)","50.1378","8.4497","Germany","DE","DEU","Hesse","","29112","1276386467"
"Riesa","Riesa","51.3081","13.2939","Germany","DE","DEU","Saxony","","29076","1276381687"
"Meißen","Meissen","51.1667","13.4833","Germany","DE","DEU","Saxony","minor","29011","1276054483"
"Rösrath","Rosrath","50.9000","7.1833","Germany","DE","DEU","North Rhine-Westphalia","","28889","1276492557"
"Emmendingen","Emmendingen","48.1214","7.8492","Germany","DE","DEU","Baden-Württemberg","minor","28856","1276708263"
"Schwelm","Schwelm","51.2667","7.2667","Germany","DE","DEU","North Rhine-Westphalia","minor","28723","1276363762"
"Höxter","Hoxter","51.7667","9.3667","Germany","DE","DEU","North Rhine-Westphalia","minor","28709","1276004976"
"Geislingen an der Steige","Geislingen an der Steige","48.6244","9.8306","Germany","DE","DEU","Baden-Württemberg","","28655","1276183243"
"Mechernich","Mechernich","50.6000","6.6500","Germany","DE","DEU","North Rhine-Westphalia","","28567","1276281325"
"Reinbek","Reinbek","53.5089","10.2483","Germany","DE","DEU","Schleswig-Holstein","","28536","1276939131"
"Hattersheim","Hattersheim","50.0722","8.4864","Germany","DE","DEU","Hesse","","28528","1276209175"
"Verden","Verden","52.9211","9.2306","Germany","DE","DEU","Lower Saxony","minor","28526","1276613119"
"Ludwigsfelde","Ludwigsfelde","52.2997","13.2667","Germany","DE","DEU","Brandenburg","","28424","1276940684"
"Baunatal","Baunatal","51.2589","9.4183","Germany","DE","DEU","Hesse","","28339","1276339266"
"Henstedt-Ulzburg","Henstedt-Ulzburg","53.7833","10.0000","Germany","DE","DEU","Schleswig-Holstein","","28323","1276986461"
"Geilenkirchen","Geilenkirchen","50.9653","6.1194","Germany","DE","DEU","North Rhine-Westphalia","","28252","1276421191"
"Kevelaer","Kevelaer","51.5833","6.2500","Germany","DE","DEU","North Rhine-Westphalia","","28232","1276753170"
"Königsbrunn","Konigsbrunn","48.2689","10.8908","Germany","DE","DEU","Bavaria","","28231","1276917723"
"Grimma","Grimma","51.2386","12.7253","Germany","DE","DEU","Saxony","","28205","1276049939"
"Arnstadt","Arnstadt","50.8342","10.9464","Germany","DE","DEU","Thuringia","minor","28124","1276728389"
"Wegberg","Wegberg","51.1417","6.2792","Germany","DE","DEU","North Rhine-Westphalia","","28074","1276843809"
"Leichlingen","Leichlingen","51.1167","7.0167","Germany","DE","DEU","North Rhine-Westphalia","","28048","1276227302"
"Zeitz","Zeitz","51.0478","12.1383","Germany","DE","DEU","Saxony-Anhalt","","27976","1276390204"
"Griesheim","Griesheim","49.8639","8.5639","Germany","DE","DEU","Hesse","","27837","1276867372"
"Lohne","Lohne","52.6667","8.2386","Germany","DE","DEU","Lower Saxony","","27814","1276514079"
"Sundern","Sundern","51.3167","8.0000","Germany","DE","DEU","North Rhine-Westphalia","","27741","1276362137"
"Teltow","Teltow","52.4022","13.2706","Germany","DE","DEU","Brandenburg","","27697","1276388501"
"Baesweiler","Baesweiler","50.9000","6.1833","Germany","DE","DEU","North Rhine-Westphalia","","27620","1276109783"
"Wetter (Ruhr)","Wetter (Ruhr)","51.3881","7.3950","Germany","DE","DEU","North Rhine-Westphalia","","27550","1276406634"
"Schloß Holte-Stukenbrock","Schloss Holte-Stukenbrock","51.8833","8.6167","Germany","DE","DEU","North Rhine-Westphalia","","27467","1276497165"
"Wangen im Allgäu","Wangen im Allgau","47.6858","9.8342","Germany","DE","DEU","Baden-Württemberg","","27411","1276638340"
"Overath","Overath","50.9500","7.3000","Germany","DE","DEU","North Rhine-Westphalia","","27405","1276053339"
"Butzbach","Butzbach","50.4367","8.6622","Germany","DE","DEU","Hesse","","27402","1276386116"
"Strausberg","Strausberg","52.5833","13.8833","Germany","DE","DEU","Brandenburg","","27344","1276019110"
"Ehingen an der Donau","Ehingen an der Donau","48.2833","9.7236","Germany","DE","DEU","Baden-Württemberg","","27276","1276432627"
"Hamminkeln","Hamminkeln","51.7319","6.5908","Germany","DE","DEU","North Rhine-Westphalia","","27248","1276465671"
"Leimen","Leimen","49.3481","8.6911","Germany","DE","DEU","Baden-Württemberg","","27142","1276081089"
"Hohen Neuendorf","Hohen Neuendorf","52.6667","13.2833","Germany","DE","DEU","Brandenburg","","27139","1276577032"
"Rheinbach","Rheinbach","50.6333","6.9500","Germany","DE","DEU","North Rhine-Westphalia","","27102","1276000657"
"Wiesloch","Wiesloch","49.2942","8.6983","Germany","DE","DEU","Baden-Württemberg","","27049","1276473184"
"Heppenheim","Heppenheim","49.6431","8.6389","Germany","DE","DEU","Hesse","minor","26946","1276763901"
"Pfaffenhofen","Pfaffenhofen","48.5333","11.5167","Germany","DE","DEU","Bavaria","minor","26943","1276259181"
"Hennigsdorf","Hennigsdorf","52.6378","13.2036","Germany","DE","DEU","Brandenburg","","26728","1276509399"
"Heiligenhaus","Heiligenhaus","51.3167","6.9667","Germany","DE","DEU","North Rhine-Westphalia","","26681","1276630818"
"Bad Neuenahr-Ahrweiler","Bad Neuenahr-Ahrweiler","50.5447","7.1133","Germany","DE","DEU","Rhineland-Palatinate","minor","26669","1276768738"
"Aschersleben","Aschersleben","51.7500","11.4667","Germany","DE","DEU","Saxony-Anhalt","","26604","1276084397"
"Neckarsulm","Neckarsulm","49.1917","9.2246","Germany","DE","DEU","Baden-Württemberg","","26495","1276644905"
"Achern","Achern","48.6333","8.0667","Germany","DE","DEU","Baden-Württemberg","","26471","1276045216"
"Lauf","Lauf","49.5103","11.2772","Germany","DE","DEU","Bavaria","minor","26420","1276202337"
"Groß-Gerau","Gross-Gerau","49.9192","8.4850","Germany","DE","DEU","Hesse","minor","26418","1276722779"
"Mühlacker","Muhlacker","48.9500","8.8394","Germany","DE","DEU","Baden-Württemberg","","26394","1276456440"
"Weiterstadt","Weiterstadt","49.9000","8.6000","Germany","DE","DEU","Hesse","","26322","1276959186"
"Bingen am Rhein","Bingen am Rhein","49.9667","7.9000","Germany","DE","DEU","Rhineland-Palatinate","","26309","1276879617"
"Nordenham","Nordenham","53.5000","8.4667","Germany","DE","DEU","Lower Saxony","","26308","1276525140"
"Zirndorf","Zirndorf","49.4500","10.9500","Germany","DE","DEU","Bavaria","","26234","1276906291"
"Selm","Selm","51.6833","7.4833","Germany","DE","DEU","North Rhine-Westphalia","","26163","1276238006"
"Bad Honnef am Rhein","Bad Honnef am Rhein","50.6450","7.2269","Germany","DE","DEU","North Rhine-Westphalia","","26061","1276512885"
"Lübbecke","Lubbecke","52.3081","8.6231","Germany","DE","DEU","North Rhine-Westphalia","","26027","1276934438"
"Harsewinkel","Harsewinkel","51.9667","8.2331","Germany","DE","DEU","North Rhine-Westphalia","","25999","1276882516"
"Unterhaching","Unterhaching","48.0658","11.6100","Germany","DE","DEU","Bavaria","","25873","1276779846"
"Lindau","Lindau","47.5458","9.6833","Germany","DE","DEU","Bavaria","","25846","1276918139"
"Schleswig","Schleswig","54.5186","9.5653","Germany","DE","DEU","Schleswig-Holstein","minor","25832","1276884755"
"Kulmbach","Kulmbach","50.1000","11.4333","Germany","DE","DEU","Bavaria","minor","25818","1276728110"
"Helmstedt","Helmstedt","52.2281","11.0106","Germany","DE","DEU","Lower Saxony","minor","25779","1276360393"
"Horb am Neckar","Horb am Neckar","48.4453","8.6911","Germany","DE","DEU","Baden-Württemberg","","25752","1276353248"
"Rinteln","Rinteln","52.1906","9.0814","Germany","DE","DEU","Lower Saxony","","25721","1276137941"
"Ellwangen","Ellwangen","48.9611","10.1306","Germany","DE","DEU","Baden-Württemberg","","25678","1276278127"
"Friedrichsdorf","Friedrichsdorf","50.2556","8.6397","Germany","DE","DEU","Hesse","","25662","1276577829"
"Geretsried","Geretsried","47.8667","11.4667","Germany","DE","DEU","Bavaria","","25623","1276737058"
"Sankt Wendel","Sankt Wendel","49.4667","7.1667","Germany","DE","DEU","Saarland","minor","25583","1276025539"
"Idstein","Idstein","50.2206","8.2742","Germany","DE","DEU","Hesse","","25554","1276320507"
"Vaterstetten","Vaterstetten","48.1050","11.7706","Germany","DE","DEU","Bavaria","","25530","1276137898"
"Verl","Verl","51.8831","8.5167","Germany","DE","DEU","North Rhine-Westphalia","","25522","1276182306"
"Rottweil","Rottweil","48.1681","8.6247","Germany","DE","DEU","Baden-Württemberg","minor","25513","1276117708"
"Brilon","Brilon","51.3956","8.5678","Germany","DE","DEU","North Rhine-Westphalia","","25511","1276723318"
"Sangerhausen","Sangerhausen","51.4667","11.3000","Germany","DE","DEU","Saxony-Anhalt","minor","25441","1276588418"
"Öhringen","Ohringen","49.2000","9.5000","Germany","DE","DEU","Baden-Württemberg","","25388","1276641265"
"Roth","Roth","49.2461","11.0911","Germany","DE","DEU","Bavaria","","25367","1276856142"
"Lennestadt","Lennestadt","51.1236","8.0681","Germany","DE","DEU","North Rhine-Westphalia","","25352","1276165009"
"Wiehl","Wiehl","50.9500","7.5333","Germany","DE","DEU","North Rhine-Westphalia","","25314","1276813101"
"Salzkotten","Salzkotten","51.6708","8.6047","Germany","DE","DEU","North Rhine-Westphalia","","25311","1276941056"
"Obertshausen","Obertshausen","50.0667","8.8333","Germany","DE","DEU","Hesse","","25307","1276455006"
"Lüdinghausen","Ludinghausen","51.7667","7.4333","Germany","DE","DEU","North Rhine-Westphalia","","25259","1276526583"
"Weingarten","Weingarten","47.8092","9.6444","Germany","DE","DEU","Baden-Württemberg","","25257","1276346018"
"Delitzsch","Delitzsch","51.5264","12.3425","Germany","DE","DEU","Saxony","","25244","1276928962"
"Pfungstadt","Pfungstadt","49.8056","8.6044","Germany","DE","DEU","Hesse","","25231","1276568312"
"Petershagen","Petershagen","52.3833","8.9667","Germany","DE","DEU","North Rhine-Westphalia","","25222","1276300392"
"Norden","Norden","53.5967","7.2056","Germany","DE","DEU","Lower Saxony","","25179","1276766299"
"Espelkamp","Espelkamp","52.3772","8.6328","Germany","DE","DEU","North Rhine-Westphalia","","25174","1276996942"
"Ditzingen","Ditzingen","48.8264","9.0667","Germany","DE","DEU","Baden-Württemberg","","25145","1276272726"
"Olpe","Olpe","51.0167","7.8333","Germany","DE","DEU","North Rhine-Westphalia","minor","25015","1276501027"
"Plettenberg","Plettenberg","51.2167","7.8833","Germany","DE","DEU","North Rhine-Westphalia","","24954","1276414700"
"Bad Oldesloe","Bad Oldesloe","53.8117","10.3742","Germany","DE","DEU","Schleswig-Holstein","minor","24935","1276683854"
"Schmallenberg","Schmallenberg","51.1490","8.2845","Germany","DE","DEU","North Rhine-Westphalia","","24878","1276002699"
"Meckenheim","Meckenheim","50.6333","7.0167","Germany","DE","DEU","North Rhine-Westphalia","","24877","1276114705"
"Sprockhövel","Sprockhovel","51.3667","7.2500","Germany","DE","DEU","North Rhine-Westphalia","","24838","1276006803"
"Syke","Syke","52.9131","8.8269","Germany","DE","DEU","Lower Saxony","","24810","1276951328"
"Zittau","Zittau","50.8961","14.8072","Germany","DE","DEU","Saxony","","24794","1276061456"
"Rudolstadt","Rudolstadt","50.7169","11.3275","Germany","DE","DEU","Thuringia","","24749","1276466405"
"Meiningen","Meiningen","50.5500","10.4167","Germany","DE","DEU","Thuringia","minor","24745","1276941916"
"Warstein","Warstein","51.4500","8.3500","Germany","DE","DEU","North Rhine-Westphalia","","24647","1276854914"
"Waldshut-Tiengen","Waldshut-Tiengen","47.6231","8.2144","Germany","DE","DEU","Baden-Württemberg","minor","24605","1276011078"
"Rathenow","Rathenow","52.6000","12.3333","Germany","DE","DEU","Brandenburg","minor","24597","1276833446"
"Ronnenberg","Ronnenberg","52.3194","9.6556","Germany","DE","DEU","Lower Saxony","","24570","1276210070"
"Bad Mergentheim","Bad Mergentheim","49.5000","9.7667","Germany","DE","DEU","Baden-Württemberg","","24564","1276714498"
"Isernhagen-Süd","Isernhagen-Sud","52.4342","9.8572","Germany","DE","DEU","Lower Saxony","","24563","1276610067"
"Markkleeberg","Markkleeberg","51.2778","12.3833","Germany","DE","DEU","Saxony","","24523","1276805845"
"Haren","Haren","52.7667","7.2167","Germany","DE","DEU","Lower Saxony","","24498","1276278460"
"Waldkraiburg","Waldkraiburg","48.2167","12.4000","Germany","DE","DEU","Bavaria","","24488","1276784836"
"Attendorn","Attendorn","51.1167","7.9000","Germany","DE","DEU","North Rhine-Westphalia","","24448","1276325506"
"Herzogenaurach","Herzogenaurach","49.5700","10.8819","Germany","DE","DEU","Bavaria","","24404","1276809658"
"Varel","Varel","53.3969","8.1361","Germany","DE","DEU","Lower Saxony","","24397","1276834869"
"Bedburg","Bedburg","51.0000","6.5625","Germany","DE","DEU","North Rhine-Westphalia","","24302","1276409548"
"Freudenstadt","Freudenstadt","48.4633","8.4111","Germany","DE","DEU","Baden-Württemberg","minor","24301","1276092007"
"Staßfurt","Stassfurt","51.8667","11.5667","Germany","DE","DEU","Saxony-Anhalt","","24293","1276438491"
"Calw","Calw","48.7167","8.7333","Germany","DE","DEU","Baden-Württemberg","minor","24219","1276416126"
"Übach-Palenberg","Ubach-Palenberg","50.9197","6.1194","Germany","DE","DEU","North Rhine-Westphalia","","24215","1276712019"
"Sehnde","Sehnde","52.3161","9.9642","Germany","DE","DEU","Lower Saxony","","24157","1276201782"
"Eisenhüttenstadt","Eisenhuttenstadt","52.1450","14.6728","Germany","DE","DEU","Brandenburg","","24125","1276902561"
"Wandlitz","Wandlitz","52.7500","13.4497","Germany","DE","DEU","Brandenburg","","24104","1276059066"
"Jüchen","Juchen","51.1011","6.5017","Germany","DE","DEU","North Rhine-Westphalia","","23940","1276318248"
"Alfter","Alfter","50.7356","7.0092","Germany","DE","DEU","North Rhine-Westphalia","","23904","1276256549"
"Westerstede","Westerstede","53.2500","7.9167","Germany","DE","DEU","Lower Saxony","minor","23854","1276738053"
"Limbach-Oberfrohna","Limbach-Oberfrohna","50.8667","12.7500","Germany","DE","DEU","Saxony","","23833","1276772007"
"Döbeln","Dobeln","51.1194","13.1128","Germany","DE","DEU","Saxony","","23763","1276060973"
"Starnberg","Starnberg","47.9972","11.3406","Germany","DE","DEU","Bavaria","minor","23741","1276454637"
"Husum","Husum","54.4667","9.0500","Germany","DE","DEU","Schleswig-Holstein","minor","23735","1276973778"
"Korbach","Korbach","51.2833","8.8667","Germany","DE","DEU","Hesse","minor","23706","1276822678"
"Gelnhausen","Gelnhausen","50.2000","9.1667","Germany","DE","DEU","Hesse","","23679","1276351264"
"Salzwedel","Salzwedel","52.8500","11.1500","Germany","DE","DEU","Saxony-Anhalt","minor","23543","1276222011"
"Kaltenkirchen","Kaltenkirchen","53.8397","9.9603","Germany","DE","DEU","Schleswig-Holstein","","23538","1276286164"
"Hannoversch Münden","Hannoversch Munden","51.4167","9.6500","Germany","DE","DEU","Lower Saxony","","23530","1276002967"
"Sonneberg","Sonneberg","50.3500","11.1667","Germany","DE","DEU","Thuringia","minor","23507","1276304773"
"Mosbach","Mosbach","49.3522","9.1467","Germany","DE","DEU","Baden-Württemberg","minor","23484","1276659317"
"Dillenburg","Dillenburg","50.7333","8.2833","Germany","DE","DEU","Hesse","","23480","1276583007"
"Senftenberg","Senftenberg","51.5167","14.0167","Germany","DE","DEU","Brandenburg","minor","23405","1276241839"
"Netphen","Netphen","50.9147","8.1000","Germany","DE","DEU","North Rhine-Westphalia","","23363","1276020652"
"Leutkirch im Allgäu","Leutkirch im Allgau","47.8256","10.0222","Germany","DE","DEU","Baden-Württemberg","","23345","1276589635"
"Warburg","Warburg","51.5000","9.1697","Germany","DE","DEU","North Rhine-Westphalia","","23322","1276612246"
"Quedlinburg","Quedlinburg","51.7917","11.1472","Germany","DE","DEU","Saxony-Anhalt","","23313","1276672547"
"Gersthofen","Gersthofen","48.4167","10.8667","Germany","DE","DEU","Bavaria","","23274","1276965949"
"Wertheim","Wertheim","49.7589","9.5175","Germany","DE","DEU","Baden-Württemberg","","23196","1276150823"
"Rastede","Rastede","53.2500","8.2000","Germany","DE","DEU","Lower Saxony","","23180","1276294384"
"Karben","Karben","50.2322","8.7681","Germany","DE","DEU","Hesse","","23172","1276723734"
"Bad Soden am Taunus","Bad Soden am Taunus","50.1333","8.5000","Germany","DE","DEU","Hesse","","23162","1276847418"
"Vreden","Vreden","52.0333","6.8333","Germany","DE","DEU","North Rhine-Westphalia","","23161","1276296218"
"Überlingen","Uberlingen","47.7667","9.1650","Germany","DE","DEU","Baden-Württemberg","","23098","1276778071"
"Apolda","Apolda","51.0167","11.5167","Germany","DE","DEU","Thuringia","minor","23072","1276857102"
"Weilheim","Weilheim","47.8333","11.1500","Germany","DE","DEU","Bavaria","minor","23056","1276001381"
"Bad Kissingen","Bad Kissingen","50.2000","10.0667","Germany","DE","DEU","Bavaria","minor","23037","1276216676"
"Bad Salzungen","Bad Salzungen","50.8117","10.2333","Germany","DE","DEU","Thuringia","minor","23013","1276249222"
"Wallenhorst","Wallenhorst","52.3500","8.0167","Germany","DE","DEU","Lower Saxony","","22989","1276580914"
"Nagold","Nagold","48.5519","8.7256","Germany","DE","DEU","Baden-Württemberg","","22985","1276622142"
"Lengerich","Lengerich","52.1750","7.8667","Germany","DE","DEU","North Rhine-Westphalia","","22980","1276617854"
"Friesoythe","Friesoythe","53.0206","7.8586","Germany","DE","DEU","Lower Saxony","","22945","1276189033"
"Kitzingen","Kitzingen","49.7333","10.1667","Germany","DE","DEU","Bavaria","minor","22945","1276000007"
"Edewecht","Edewecht","53.1258","7.9825","Germany","DE","DEU","Lower Saxony","","22908","1276458945"
"Senden","Senden","48.3167","10.0667","Germany","DE","DEU","Bavaria","","22896","1276555386"
"Neusäß","Neusass","48.4000","10.8333","Germany","DE","DEU","Bavaria","","22872","1276057547"
"Laupheim","Laupheim","48.2289","9.8797","Germany","DE","DEU","Baden-Württemberg","","22863","1276003982"
"Herdecke","Herdecke","51.4000","7.4333","Germany","DE","DEU","North Rhine-Westphalia","","22758","1276078079"
"Burg","Burg","52.2725","11.8550","Germany","DE","DEU","Saxony-Anhalt","minor","22689","1276295040"
"Stadthagen","Stadthagen","52.3247","9.2069","Germany","DE","DEU","Lower Saxony","minor","22643","1276512771"
"Büdingen","Budingen","50.2908","9.1125","Germany","DE","DEU","Hesse","","22622","1276951058"
"Haar","Haar","48.1000","11.7333","Germany","DE","DEU","Bavaria","","22555","1276621025"
"Metzingen","Metzingen","48.5367","9.2858","Germany","DE","DEU","Baden-Württemberg","","22528","1276043043"
"Donaueschingen","Donaueschingen","47.9531","8.5033","Germany","DE","DEU","Baden-Württemberg","","22431","1276107502"
"Ottobrunn","Ottobrunn","48.0667","11.6667","Germany","DE","DEU","Bavaria","","22430","1276842192"
"Bad Rappenau","Bad Rappenau","49.2333","9.1000","Germany","DE","DEU","Baden-Württemberg","","22356","1276726877"
"Versmold","Versmold","52.0436","8.1500","Germany","DE","DEU","North Rhine-Westphalia","","22274","1276482608"
"Eppingen","Eppingen","49.1333","8.9167","Germany","DE","DEU","Baden-Württemberg","","22226","1276844300"
"Radevormwald","Radevormwald","51.2000","7.3500","Germany","DE","DEU","North Rhine-Westphalia","","22222","1276941483"
"Ilsede","Ilsede","52.2667","10.1833","Germany","DE","DEU","Lower Saxony","","22206","1276410827"
"Waldkirch","Waldkirch","48.1000","7.9667","Germany","DE","DEU","Baden-Württemberg","","22127","1276926019"
"Heide","Heide","54.1961","9.0933","Germany","DE","DEU","Schleswig-Holstein","minor","22114","1276473220"
"Eschborn","Eschborn","50.1436","8.5700","Germany","DE","DEU","Hesse","","22070","1276712049"
"Karlsfeld","Karlsfeld","48.2167","11.4667","Germany","DE","DEU","Bavaria","","22069","1276796218"
"Schwetzingen","Schwetzingen","49.3833","8.5667","Germany","DE","DEU","Baden-Württemberg","","22062","1276516691"
"Gardelegen","Gardelegen","52.5264","11.3925","Germany","DE","DEU","Saxony-Anhalt","","22054","1276557570"
"Elsdorf","Elsdorf","50.9333","6.5667","Germany","DE","DEU","North Rhine-Westphalia","","22021","1276581538"
"Glauchau","Glauchau","50.8233","12.5444","Germany","DE","DEU","Saxony","","21951","1276610130"
"Aichach","Aichach","48.4500","11.1333","Germany","DE","DEU","Bavaria","minor","21908","1276090074"
"Sonthofen","Sonthofen","47.5158","10.2811","Germany","DE","DEU","Bavaria","minor","21859","1276823857"
"Flörsheim","Florsheim","50.0167","8.4333","Germany","DE","DEU","Hesse","","21851","1276463362"
"Soltau","Soltau","52.9833","9.8333","Germany","DE","DEU","Lower Saxony","","21808","1276678434"
"Eislingen","Eislingen","48.6933","9.7067","Germany","DE","DEU","Baden-Württemberg","","21745","1276267974"
"Hockenheim","Hockenheim","49.3181","8.5472","Germany","DE","DEU","Baden-Württemberg","","21745","1276940967"
"Bad Harzburg","Bad Harzburg","51.8811","10.5622","Germany","DE","DEU","Lower Saxony","","21738","1276192309"
"Mühldorf","Muhldorf","48.2456","12.5228","Germany","DE","DEU","Bavaria","minor","21697","1276623949"
"Geseke","Geseke","51.6500","8.5167","Germany","DE","DEU","North Rhine-Westphalia","","21685","1276815446"
"Bad Krozingen","Bad Krozingen","47.9167","7.7000","Germany","DE","DEU","Baden-Württemberg","","21684","1276964772"
"Lindlar","Lindlar","51.0167","7.3833","Germany","DE","DEU","North Rhine-Westphalia","","21665","1276176624"
"Spremberg","Spremberg","51.5717","14.3794","Germany","DE","DEU","Brandenburg","","21585","1276939967"
"Xanten","Xanten","51.6622","6.4539","Germany","DE","DEU","North Rhine-Westphalia","","21582","1276917094"
"Seligenstadt","Seligenstadt","50.0333","8.9667","Germany","DE","DEU","Hesse","","21568","1276356108"
"Stadtallendorf","Stadtallendorf","50.8333","9.0167","Germany","DE","DEU","Hesse","","21552","1276032217"
"Zerbst","Zerbst","51.9681","12.0844","Germany","DE","DEU","Saxony-Anhalt","","21519","1276007718"
"Eckernförde","Eckernforde","54.4742","9.8378","Germany","DE","DEU","Schleswig-Holstein","","21507","1276177935"
"Günzburg","Gunzburg","48.4527","10.2713","Germany","DE","DEU","Bavaria","minor","21486","1276986738"
"Rees","Rees","51.7667","6.4000","Germany","DE","DEU","North Rhine-Westphalia","","21475","1276451097"
"Osterode","Osterode","51.7286","10.2522","Germany","DE","DEU","Lower Saxony","minor","21446","1276593815"
"Waghäusel","Waghausel","49.2500","8.5167","Germany","DE","DEU","Baden-Württemberg","","21444","1276002094"
"Zossen","Zossen","52.2167","13.4497","Germany","DE","DEU","Brandenburg","","21433","1276905478"
"Puchheim","Puchheim","48.1500","11.3500","Germany","DE","DEU","Bavaria","","21420","1276452600"
"Sondershausen","Sondershausen","51.3667","10.8667","Germany","DE","DEU","Thuringia","minor","21317","1276468586"
"Gauting","Gauting","48.0678","11.3739","Germany","DE","DEU","Bavaria","","21276","1276677644"
"Traunstein","Traunstein","47.8667","12.6333","Germany","DE","DEU","Bavaria","minor","21251","1276793310"
"Wildeshausen","Wildeshausen","52.9000","8.4333","Germany","DE","DEU","Lower Saxony","","21154","1276599018"
"Schramberg","Schramberg","48.2269","8.3842","Germany","DE","DEU","Baden-Württemberg","","21125","1276492911"
"Wipperfürth","Wipperfurth","51.1167","7.4000","Germany","DE","DEU","North Rhine-Westphalia","","21112","1276735297"
"Traunreut","Traunreut","47.9667","12.5833","Germany","DE","DEU","Bavaria","","21102","1276958674"
"Wülfrath","Wulfrath","51.2833","7.0333","Germany","DE","DEU","North Rhine-Westphalia","","21100","1276377418"
"Germersheim","Germersheim","49.2167","8.3667","Germany","DE","DEU","Rhineland-Palatinate","minor","21099","1276963829"
"Groß-Umstadt","Gross-Umstadt","49.8667","8.9333","Germany","DE","DEU","Hesse","","21028","1276232744"
"Zülpich","Zulpich","50.7000","6.6500","Germany","DE","DEU","North Rhine-Westphalia","","21025","1276675318"
"Nördlingen","Nordlingen","48.8511","10.4883","Germany","DE","DEU","Bavaria","","21009","1276160287"
"Mössingen","Mossingen","48.4064","9.0575","Germany","DE","DEU","Baden-Württemberg","","20900","1276236369"
"Senden","Senden","51.8572","7.4828","Germany","DE","DEU","North Rhine-Westphalia","","20895","1276271183"
"Herborn","Herborn","50.6825","8.3061","Germany","DE","DEU","Hesse","","20894","1276002994"
"Luckenwalde","Luckenwalde","52.0833","13.1667","Germany","DE","DEU","Brandenburg","minor","20839","1276376363"
"Bruchköbel","Bruchkobel","50.1833","8.9167","Germany","DE","DEU","Hesse","","20825","1276199010"
"Meinerzhagen","Meinerzhagen","51.1167","7.6333","Germany","DE","DEU","North Rhine-Westphalia","","20812","1276363054"
"Stadtlohn","Stadtlohn","51.9925","6.9150","Germany","DE","DEU","North Rhine-Westphalia","","20807","1276897939"
"Schortens","Schortens","53.5333","7.9500","Germany","DE","DEU","Lower Saxony","","20797","1276002315"
"Wittmund","Wittmund","53.5750","7.7808","Germany","DE","DEU","Lower Saxony","minor","20773","1276497812"
"Hörstel","Horstel","52.2972","7.5861","Germany","DE","DEU","North Rhine-Westphalia","","20766","1276546954"
"Enger","Enger","52.1333","8.5667","Germany","DE","DEU","North Rhine-Westphalia","","20705","1276241559"
"Werdau","Werdau","50.7333","12.3833","Germany","DE","DEU","Saxony","","20702","1276717054"
"Nidderau","Nidderau","50.2500","8.9000","Germany","DE","DEU","Hesse","","20700","1276730067"
"Steinhagen","Steinhagen","52.0050","8.4147","Germany","DE","DEU","North Rhine-Westphalia","","20671","1276279674"
"Schwanewede","Schwanewede","53.2333","8.6000","Germany","DE","DEU","Lower Saxony","","20661","1276874322"
"Bad Waldsee","Bad Waldsee","47.9211","9.7519","Germany","DE","DEU","Baden-Württemberg","","20630","1276818086"
"Bockum","Bockum","51.3333","6.5667","Germany","DE","DEU","North Rhine-Westphalia","","20617","1276162253"
"Schifferstadt","Schifferstadt","49.3833","8.3667","Germany","DE","DEU","Rhineland-Palatinate","","20615","1276776055"
"Dingolfing","Dingolfing","48.6333","12.5000","Germany","DE","DEU","Bavaria","minor","20607","1276764455"
"Neufahrn bei Freising","Neufahrn bei Freising","48.3167","11.6667","Germany","DE","DEU","Bavaria","","20590","1276307498"
"Wachtberg","Wachtberg","50.6167","7.1333","Germany","DE","DEU","North Rhine-Westphalia","","20581","1276189631"
"Fröndenberg","Frondenberg","51.4719","7.7658","Germany","DE","DEU","North Rhine-Westphalia","","20548","1276071190"
"Coswig","Coswig","51.1333","13.5833","Germany","DE","DEU","Saxony","","20512","1276791212"
"Uetze","Uetze","52.4661","10.2039","Germany","DE","DEU","Lower Saxony","","20471","1276620577"
"Dülken","Dulken","51.2522","6.3353","Germany","DE","DEU","North Rhine-Westphalia","","20469","1276245345"
"Greiz","Greiz","50.6547","12.1997","Germany","DE","DEU","Thuringia","minor","20397","1276236041"
"Haßloch","Hassloch","49.3631","8.2558","Germany","DE","DEU","Rhineland-Palatinate","","20387","1276280419"
"Reichenbach/Vogtland","Reichenbach/Vogtland","50.6167","12.3000","Germany","DE","DEU","Saxony","","20371","1276903490"
"Neustrelitz","Neustrelitz","53.3647","13.0636","Germany","DE","DEU","Mecklenburg-Western Pomerania","","20340","1276001058"
"Duderstadt","Duderstadt","51.5125","10.2597","Germany","DE","DEU","Lower Saxony","","20286","1276392919"
"Bad Schwartau","Bad Schwartau","53.9194","10.6975","Germany","DE","DEU","Schleswig-Holstein","","20255","1276687859"
"Blieskastel","Blieskastel","49.2333","7.2500","Germany","DE","DEU","Saarland","","20240","1276041906"
"Ochtrup","Ochtrup","52.2056","7.1903","Germany","DE","DEU","North Rhine-Westphalia","","20230","1276195349"
"Telgte","Telgte","51.9819","7.7856","Germany","DE","DEU","North Rhine-Westphalia","","20222","1276981111"
"Lichtenfels","Lichtenfels","50.1333","11.0333","Germany","DE","DEU","Bavaria","minor","20217","1276573026"
"Schopfheim","Schopfheim","47.6500","7.8167","Germany","DE","DEU","Baden-Württemberg","","20163","1276002233"
"Giengen an der Brenz","Giengen an der Brenz","48.6217","10.2450","Germany","DE","DEU","Baden-Württemberg","","20133","1276782990"
"Kürten","Kurten","51.0497","7.2667","Germany","DE","DEU","North Rhine-Westphalia","","20128","1276494913"
"Holzminden","Holzminden","51.8297","9.4483","Germany","DE","DEU","North Rhine-Westphalia","minor","20120","1276491992"
"Leinefelde","Leinefelde","51.3833","10.3333","Germany","DE","DEU","Thuringia","","20119","1276779963"
"Oberkirch","Oberkirch","48.5333","8.0833","Germany","DE","DEU","Baden-Württemberg","","20092","1276739886"
"Schmalkalden","Schmalkalden","50.7167","10.4500","Germany","DE","DEU","Thuringia","","20065","1276313755"
"Tettnang","Tettnang","47.6708","9.5875","Germany","DE","DEU","Baden-Württemberg","","20037","1276775320"
"Donauwörth","Donauworth","48.7000","10.8000","Germany","DE","DEU","Bavaria","minor","19994","1276878391"
"Dillingen","Dillingen","49.3500","6.7333","Germany","DE","DEU","Saarland","","19989","1276001038"
"Korntal-Münchingen","Korntal-Munchingen","48.8306","9.1214","Germany","DE","DEU","Baden-Württemberg","","19955","1276087969"
"Waldbröl","Waldbrol","50.8789","7.6150","Germany","DE","DEU","North Rhine-Westphalia","","19949","1276170251"
"Hiddenhausen","Hiddenhausen","52.1667","8.6167","Germany","DE","DEU","North Rhine-Westphalia","","19924","1276748088"
"Nottuln","Nottuln","51.9167","7.2833","Germany","DE","DEU","North Rhine-Westphalia","","19901","1276258837"
"Gerlingen","Gerlingen","48.8000","9.0653","Germany","DE","DEU","Baden-Württemberg","","19853","1276144443"
"Moosburg","Moosburg","48.4667","11.9333","Germany","DE","DEU","Bavaria","","19832","1276561909"
"Dillingen","Dillingen","48.5667","10.4667","Germany","DE","DEU","Bavaria","minor","19814","1276506212"
"Torgau","Torgau","51.5603","13.0056","Germany","DE","DEU","Saxony","minor","19802","1276804920"
"Wilnsdorf","Wilnsdorf","50.8167","8.1000","Germany","DE","DEU","North Rhine-Westphalia","","19793","1276419924"
"Ennigerloh","Ennigerloh","51.8367","8.0256","Germany","DE","DEU","North Rhine-Westphalia","","19757","1276421778"
"Wittlich","Wittlich","49.9869","6.8897","Germany","DE","DEU","Rhineland-Palatinate","minor","19740","1276069973"
"Marsberg","Marsberg","51.4500","8.8333","Germany","DE","DEU","North Rhine-Westphalia","","19736","1276309670"
"Sarstedt","Sarstedt","52.2394","9.8606","Germany","DE","DEU","Lower Saxony","","19735","1276490791"
"Gröbenzell","Grobenzell","48.2000","11.3667","Germany","DE","DEU","Bavaria","","19717","1276398825"
"Mayen","Mayen","50.3333","7.2167","Germany","DE","DEU","Rhineland-Palatinate","","19708","1276174509"
"Schenefeld","Schenefeld","53.6028","9.8233","Germany","DE","DEU","Schleswig-Holstein","","19707","1276791655"
"Oschersleben","Oschersleben","52.0167","11.2500","Germany","DE","DEU","Saxony-Anhalt","","19704","1276686337"
"Bückeburg","Buckeburg","52.2608","9.0492","Germany","DE","DEU","Lower Saxony","","19701","1276508515"
"Haiger","Haiger","50.7422","8.2039","Germany","DE","DEU","Hesse","","19623","1276810840"
"Bad Aibling","Bad Aibling","47.8639","12.0100","Germany","DE","DEU","Bavaria","","19613","1276844408"
"Bad Pyrmont","Bad Pyrmont","51.9867","9.2636","Germany","DE","DEU","Lower Saxony","","19604","1276800450"
"Rhede","Rhede","51.8333","6.7006","Germany","DE","DEU","North Rhine-Westphalia","","19595","1276000350"
"Engelskirchen","Engelskirchen","50.9833","7.4167","Germany","DE","DEU","North Rhine-Westphalia","","19584","1276315673"
"Wenden","Wenden","50.9667","7.8667","Germany","DE","DEU","North Rhine-Westphalia","","19565","1276958292"
"Eschwege","Eschwege","51.1881","10.0528","Germany","DE","DEU","Hesse","minor","19472","1276348756"
"Borna","Borna","51.1167","12.5000","Germany","DE","DEU","Saxony","","19470","1276020510"
"Mölln","Molln","53.6269","10.6847","Germany","DE","DEU","Schleswig-Holstein","","19469","1276643502"
"Müllheim","Mullheim","47.8000","7.6333","Germany","DE","DEU","Baden-Württemberg","","19463","1276925185"
"Hechingen","Hechingen","48.3517","8.9633","Germany","DE","DEU","Baden-Württemberg","","19439","1276884131"
"Weil der Stadt","Weil der Stadt","48.7508","8.8706","Germany","DE","DEU","Baden-Württemberg","","19401","1276534554"
"Sulzbach-Rosenberg","Sulzbach-Rosenberg","49.5000","11.7500","Germany","DE","DEU","Bavaria","","19401","1276541212"
"Bad Driburg","Bad Driburg","51.7333","9.0167","Germany","DE","DEU","North Rhine-Westphalia","","19390","1276571920"
"Annaberg-Buchholz","Annaberg-Buchholz","50.5800","13.0022","Germany","DE","DEU","Saxony","minor","19382","1276866777"
"Burghausen","Burghausen","48.1667","12.8333","Germany","DE","DEU","Bavaria","","19364","1276305755"
"Nauen","Nauen","52.6000","12.8831","Germany","DE","DEU","Brandenburg","","19352","1276864648"
"Wassenberg","Wassenberg","51.1000","6.1500","Germany","DE","DEU","North Rhine-Westphalia","","19339","1276956199"
"Wolfratshausen","Wolfratshausen","47.9133","11.4278","Germany","DE","DEU","Bavaria","","19335","1276706639"
"Heusenstamm","Heusenstamm","50.0500","8.8000","Germany","DE","DEU","Hesse","","19306","1276666927"
"Haldensleben","Haldensleben","52.2833","11.4167","Germany","DE","DEU","Saxony-Anhalt","minor","19267","1276371853"
"Alzey","Alzey","49.7458","8.1153","Germany","DE","DEU","Rhineland-Palatinate","minor","19265","1276680173"
"Gilching","Gilching","48.1167","11.3000","Germany","DE","DEU","Bavaria","","19247","1276366284"
"Schkeuditz","Schkeuditz","51.4000","12.2167","Germany","DE","DEU","Saxony","","19189","1276228794"
"Bad Tölz","Bad Tolz","47.7603","11.5567","Germany","DE","DEU","Bavaria","minor","19186","1276892151"
"Schönefeld","Schonefeld","52.3883","13.5047","Germany","DE","DEU","Brandenburg","","19174","1276663675"
"Blankenburg","Blankenburg","51.7953","10.9622","Germany","DE","DEU","Saxony-Anhalt","","19161","1276635033"
"Seesen","Seesen","51.8931","10.1783","Germany","DE","DEU","Lower Saxony","","19159","1276914120"
"Sömmerda","Sommerda","51.1617","11.1169","Germany","DE","DEU","Thuringia","minor","19156","1276806984"
"Schwalmtal","Schwalmtal","51.2225","6.2625","Germany","DE","DEU","North Rhine-Westphalia","","19143","1276833199"
"Schneverdingen","Schneverdingen","53.1167","9.8000","Germany","DE","DEU","Lower Saxony","","19140","1276752778"
"Eitorf","Eitorf","50.7697","7.4517","Germany","DE","DEU","North Rhine-Westphalia","","19132","1276150855"
"Lebach","Lebach","49.4100","6.9100","Germany","DE","DEU","Saarland","","19095","1276242576"
"Pfullingen","Pfullingen","48.4656","9.2261","Germany","DE","DEU","Baden-Württemberg","","19005","1276393885"
"Radeberg","Radeberg","51.1167","13.9167","Germany","DE","DEU","Saxony","","18980","1276815602"
"Burscheid","Burscheid","51.1000","7.1167","Germany","DE","DEU","North Rhine-Westphalia","","18968","1276397307"
"Kolbermoor","Kolbermoor","47.8500","12.0667","Germany","DE","DEU","Bavaria","","18945","1276583234"
"Neviges","Neviges","51.3128","7.0869","Germany","DE","DEU","North Rhine-Westphalia","","18937","1276164931"
"Bad Berleburg","Bad Berleburg","51.0497","8.4000","Germany","DE","DEU","North Rhine-Westphalia","","18923","1276128056"
"Prenzlau","Prenzlau","53.3167","13.8667","Germany","DE","DEU","Brandenburg","minor","18909","1276456147"
"Bad Reichenhall","Bad Reichenhall","47.7247","12.8769","Germany","DE","DEU","Bavaria","minor","18893","1276059039"
"Hemmingen","Hemmingen","52.3236","9.7256","Germany","DE","DEU","Lower Saxony","","18870","1276579217"
"Weißenburg","Weissenburg","49.0306","10.9719","Germany","DE","DEU","Bavaria","minor","18854","1276099657"
"Alzenau in Unterfranken","Alzenau in Unterfranken","50.0667","9.0667","Germany","DE","DEU","Bavaria","","18829","1276942017"
"Bad Dürkheim","Bad Durkheim","49.4594","8.1681","Germany","DE","DEU","Rhineland-Palatinate","minor","18818","1276602357"
"Marktoberdorf","Marktoberdorf","47.7667","10.6167","Germany","DE","DEU","Bavaria","minor","18809","1276720955"
"Bremervörde","Bremervorde","53.4833","9.1333","Germany","DE","DEU","Lower Saxony","","18793","1276000575"
"Alfeld","Alfeld","51.9886","9.8269","Germany","DE","DEU","Lower Saxony","","18723","1276733070"
"Bergneustadt","Bergneustadt","51.0333","7.6500","Germany","DE","DEU","North Rhine-Westphalia","","18633","1276283829"
"Uetersen","Uetersen","53.6872","9.6692","Germany","DE","DEU","Schleswig-Holstein","","18618","1276507212"
"Renningen","Renningen","48.7661","8.9347","Germany","DE","DEU","Baden-Württemberg","","18596","1276122703"
"Rhynern","Rhynern","51.6299","7.8581","Germany","DE","DEU","North Rhine-Westphalia","","18578","1276906435"
"Crimmitschau","Crimmitschau","50.8181","12.3875","Germany","DE","DEU","Saxony","","18567","1276188517"
"Glinde","Glinde","53.5406","10.2111","Germany","DE","DEU","Schleswig-Holstein","","18547","1276316044"
"Hochheim am Main","Hochheim am Main","50.0167","8.3500","Germany","DE","DEU","Hesse","","18538","1276794905"
"Rhaude","Rhaude","53.1667","7.5500","Germany","DE","DEU","Lower Saxony","","18495","1276244739"
"Vlotho","Vlotho","52.1667","8.8497","Germany","DE","DEU","North Rhine-Westphalia","","18495","1276438597"
"Schwalmstadt","Schwalmstadt","50.9333","9.2167","Germany","DE","DEU","Hesse","","18488","1276496894"
"Vellmar","Vellmar","51.3500","9.4667","Germany","DE","DEU","Hesse","","18474","1276293369"
"Hoppegarten","Hoppegarten","52.5167","13.6667","Germany","DE","DEU","Brandenburg","","18469","1276233204"
"Hessisch Oldendorf","Hessisch Oldendorf","52.1667","9.2500","Germany","DE","DEU","Lower Saxony","","18458","1276530384"
"Bönen","Bonen","51.5986","7.7592","Germany","DE","DEU","North Rhine-Westphalia","","18438","1276501741"
"Lahnstein","Lahnstein","50.3011","7.6056","Germany","DE","DEU","Rhineland-Palatinate","","18433","1276335770"
"Vechelde","Vechelde","52.2608","10.3720","Germany","DE","DEU","Lower Saxony","","18419","1276280794"
"Kronberg","Kronberg","50.1833","8.5000","Germany","DE","DEU","Hesse","","18416","1276558702"
"Konz","Konz","49.7000","6.5833","Germany","DE","DEU","Rhineland-Palatinate","","18403","1276863750"
"Langen","Langen","53.6167","8.5833","Germany","DE","DEU","Lower Saxony","","18395","1276787724"
"Sigmaringen","Sigmaringen","48.0867","9.2164","Germany","DE","DEU","Baden-Württemberg","minor","18375","1276579491"
"Illertissen","Illertissen","48.2167","10.0833","Germany","DE","DEU","Bavaria","","18368","1276593057"
"Wörth am Rhein","Worth am Rhein","49.0517","8.2603","Germany","DE","DEU","Rhineland-Palatinate","","18350","1276803392"
"Püttlingen","Puttlingen","49.2833","6.8833","Germany","DE","DEU","Saarland","","18295","1276328612"
"Parchim","Parchim","53.4167","11.8333","Germany","DE","DEU","Mecklenburg-Western Pomerania","minor","18278","1276781173"
"Bad Segeberg","Bad Segeberg","53.9167","10.3167","Germany","DE","DEU","Schleswig-Holstein","minor","18221","1276181220"
"Taufkirchen","Taufkirchen","48.0500","11.6167","Germany","DE","DEU","Bavaria","","18185","1276946888"
"Heusweiler","Heusweiler","49.3500","6.9167","Germany","DE","DEU","Saarland","","18138","1276589030"
"Großenhain","Grossenhain","51.2833","13.5500","Germany","DE","DEU","Saxony","","18102","1276062611"
"Bobingen","Bobingen","48.2667","10.8167","Germany","DE","DEU","Bavaria","","18070","1276277241"
"Ismaning","Ismaning","48.2264","11.6725","Germany","DE","DEU","Bavaria","","18062","1276633464"
"Frankenberg","Frankenberg","51.0589","8.7967","Germany","DE","DEU","Hesse","","18033","1276051534"
"Buchen in Odenwald","Buchen in Odenwald","49.5217","9.3233","Germany","DE","DEU","Baden-Württemberg","","18018","1276974738"
"Halstenbek","Halstenbek","53.6333","9.8667","Germany","DE","DEU","Schleswig-Holstein","","17978","1276502053"
"Forst (Lausitz)","Forst (Lausitz)","51.7333","14.6333","Germany","DE","DEU","Brandenburg","minor","17855","1276307453"
"Werdohl","Werdohl","51.2667","7.7667","Germany","DE","DEU","North Rhine-Westphalia","","17827","1276252108"
"Freilassing","Freilassing","47.8333","12.9667","Germany","DE","DEU","Bavaria","","17816","1276282147"
"Oberasbach","Oberasbach","49.4219","10.9583","Germany","DE","DEU","Bavaria","","17810","1276883001"
"Freudenberg","Freudenberg","50.8997","7.8667","Germany","DE","DEU","North Rhine-Westphalia","","17773","1276203816"
"Weilerswist","Weilerswist","50.7667","6.8331","Germany","DE","DEU","North Rhine-Westphalia","","17763","1276196385"
"Auerbach","Auerbach","50.5094","12.4000","Germany","DE","DEU","Saxony","","17759","1276679224"
"Schrobenhausen","Schrobenhausen","48.5333","11.2667","Germany","DE","DEU","Bavaria","","17754","1276307699"
"Bad Münder am Deister","Bad Munder am Deister","52.1992","9.4653","Germany","DE","DEU","Lower Saxony","","17728","1276351668"
"Kreuzau","Kreuzau","50.7500","6.4831","Germany","DE","DEU","North Rhine-Westphalia","","17687","1276795378"
"Diepholz","Diepholz","52.6072","8.3711","Germany","DE","DEU","Lower Saxony","minor","17685","1276476080"
"Bad Säckingen","Bad Sackingen","47.5500","7.9500","Germany","DE","DEU","Baden-Württemberg","","17660","1276877057"
"Nidda","Nidda","50.4128","9.0092","Germany","DE","DEU","Hesse","","17650","1276604046"
"Bexbach","Bexbach","49.3494","7.2594","Germany","DE","DEU","Saarland","","17642","1276508289"
"Damme","Damme","52.5208","8.1986","Germany","DE","DEU","Lower Saxony","","17639","1276165336"
"Bad Wildungen","Bad Wildungen","51.1167","9.1167","Germany","DE","DEU","Hesse","","17595","1276828659"
"Trossingen","Trossingen","48.0756","8.6361","Germany","DE","DEU","Baden-Württemberg","","17571","1276343997"
"Garching bei München","Garching bei Munchen","48.2500","11.6500","Germany","DE","DEU","Bavaria","","17526","1276544473"
"Stockach","Stockach","47.8514","9.0114","Germany","DE","DEU","Baden-Württemberg","","17490","1276190104"
"Nümbrecht","Numbrecht","50.9053","7.5422","Germany","DE","DEU","North Rhine-Westphalia","","17486","1276389854"
"Sinzig","Sinzig","50.5453","7.2519","Germany","DE","DEU","Rhineland-Palatinate","","17437","1276200986"
"Remagen","Remagen","50.5786","7.2306","Germany","DE","DEU","Rhineland-Palatinate","","17426","1276287418"
"Cham","Cham","49.2167","12.6500","Germany","DE","DEU","Bavaria","minor","17421","1276459468"
"Babenhausen","Babenhausen","49.9667","8.9500","Germany","DE","DEU","Hesse","","17409","1276006345"
"Kelsterbach","Kelsterbach","50.0617","8.5311","Germany","DE","DEU","Hesse","","17375","1276996005"
"Gescher","Gescher","51.9569","7.0056","Germany","DE","DEU","North Rhine-Westphalia","","17361","1276129657"
"Bad Langensalza","Bad Langensalza","51.1081","10.6467","Germany","DE","DEU","Thuringia","","17349","1276854476"
"Schwarzenbek","Schwarzenbek","53.5042","10.4792","Germany","DE","DEU","Schleswig-Holstein","","17317","1276765796"
"Schwalbach","Schwalbach","49.2833","6.8167","Germany","DE","DEU","Saarland","","17309","1276949643"
"Holzwickede","Holzwickede","51.5000","7.6167","Germany","DE","DEU","North Rhine-Westphalia","","17298","1276204941"
"Horn-Bad Meinberg","Horn-Bad Meinberg","51.8833","8.9667","Germany","DE","DEU","North Rhine-Westphalia","","17290","1276648708"
"Brand","Brand","50.7489","6.1650","Germany","DE","DEU","North Rhine-Westphalia","","17284","1276474228"
"Bad Münstereifel","Bad Munstereifel","50.5531","6.7661","Germany","DE","DEU","North Rhine-Westphalia","","17282","1276172917"
"Gunzenhausen","Gunzenhausen","49.1147","10.7542","Germany","DE","DEU","Bavaria","","17239","1276273217"
"Oerlinghausen","Oerlinghausen","51.9667","8.6667","Germany","DE","DEU","North Rhine-Westphalia","","17238","1276933659"
"Heilbad Heiligenstadt","Heilbad Heiligenstadt","51.3789","10.1386","Germany","DE","DEU","Thuringia","minor","17233","1276037701"
"Bendorf","Bendorf","50.4297","7.5703","Germany","DE","DEU","Rhineland-Palatinate","","17221","1276205648"
"Marktredwitz","Marktredwitz","50.0000","12.0667","Germany","DE","DEU","Bavaria","","17206","1276442185"
"Bad Wörishofen","Bad Worishofen","48.0058","10.5969","Germany","DE","DEU","Bavaria","","17180","1276068961"
"Stockelsdorf","Stockelsdorf","53.8833","10.6500","Germany","DE","DEU","Schleswig-Holstein","","17087","1276893181"
"Eutin","Eutin","54.1378","10.6181","Germany","DE","DEU","Schleswig-Holstein","minor","17086","1276288365"
"Künzell","Kunzell","50.5500","9.7167","Germany","DE","DEU","Hesse","","17062","1276700947"
"Kelheim","Kelheim","48.9167","11.8667","Germany","DE","DEU","Bavaria","minor","17044","1276123640"
"Wadgassen","Wadgassen","49.2667","6.7667","Germany","DE","DEU","Saarland","","17016","1276539797"
"Kamenz","Kamenz","51.2667","14.1000","Germany","DE","DEU","Saxony","","17015","1276558710"
"Ginsheim-Gustavsburg","Ginsheim-Gustavsburg","49.9833","8.3333","Germany","DE","DEU","Hesse","","16960","1276577011"
"Hünfeld","Hunfeld","50.6667","9.7667","Germany","DE","DEU","Hesse","","16941","1276813919"
"Eggenstein-Leopoldshafen","Eggenstein-Leopoldshafen","49.0778","8.3925","Germany","DE","DEU","Baden-Württemberg","","16924","1276489568"
"Kronach","Kronach","50.2411","11.3281","Germany","DE","DEU","Bavaria","minor","16906","1276212761"
"Bruckmühl","Bruckmuhl","47.8833","11.9167","Germany","DE","DEU","Bavaria","","16894","1276950984"
"Heidenau","Heidenau","50.9833","13.8667","Germany","DE","DEU","Saxony","","16884","1276588672"
"Thale","Thale","51.7500","11.0500","Germany","DE","DEU","Saxony-Anhalt","","16868","1276578169"
"Bitburg","Bitburg","49.9667","6.5333","Germany","DE","DEU","Rhineland-Palatinate","minor","16852","1276110282"
"Finnentrop","Finnentrop","51.1667","7.9667","Germany","DE","DEU","North Rhine-Westphalia","","16851","1276799672"
"Wittenberge","Wittenberge","53.0000","11.7500","Germany","DE","DEU","Brandenburg","","16837","1276040852"
"Bad Lippspringe","Bad Lippspringe","51.7833","8.8167","Germany","DE","DEU","North Rhine-Westphalia","","16808","1276944431"
"Königstein im Taunus","Konigstein im Taunus","50.1833","8.4667","Germany","DE","DEU","Hesse","","16744","1276481618"
"Bürstadt","Burstadt","49.6333","8.4500","Germany","DE","DEU","Hesse","","16734","1276454378"
"Penzberg","Penzberg","47.7500","11.3833","Germany","DE","DEU","Bavaria","","16729","1276589283"
"Holzkirchen","Holzkirchen","47.8833","11.7000","Germany","DE","DEU","Bavaria","","16722","1276287582"
"Bassum","Bassum","52.8494","8.7267","Germany","DE","DEU","Lower Saxony","","16658","1276562113"
"Loxstedt","Loxstedt","53.4667","8.6500","Germany","DE","DEU","Lower Saxony","","16651","1276084019"
"Seeheim-Jugenheim","Seeheim-Jugenheim","49.7500","8.6500","Germany","DE","DEU","Hesse","","16627","1276449114"
"Leopoldshöhe","Leopoldshohe","52.0167","8.6914","Germany","DE","DEU","North Rhine-Westphalia","","16614","1276147484"
"Wurzen","Wurzen","51.3667","12.7167","Germany","DE","DEU","Saxony","","16614","1276002805"
"Marienberg","Marienberg","50.6333","13.1500","Germany","DE","DEU","Saxony","","16603","1276662047"
"Reinheim","Reinheim","49.8269","8.8308","Germany","DE","DEU","Hesse","","16603","1276510132"
"Eppelborn","Eppelborn","49.3833","6.9667","Germany","DE","DEU","Saarland","","16565","1276013431"
"Regenstauf","Regenstauf","49.1236","12.1283","Germany","DE","DEU","Bavaria","","16543","1276162289"
"Raunheim","Raunheim","50.0167","8.4500","Germany","DE","DEU","Hesse","","16542","1276238709"
"Hövelhof","Hovelhof","51.8167","8.6500","Germany","DE","DEU","North Rhine-Westphalia","","16522","1276911477"
"Brackenheim","Brackenheim","49.0833","9.0667","Germany","DE","DEU","Baden-Württemberg","","16521","1276363194"
"Kirchhain","Kirchhain","50.8167","8.9167","Germany","DE","DEU","Hesse","","16462","1276056692"
"Wardenburg","Wardenburg","53.0617","8.1967","Germany","DE","DEU","Lower Saxony","","16449","1276888712"
"Altena","Altena","51.3000","7.6667","Germany","DE","DEU","North Rhine-Westphalia","","16430","1276575290"
"Kierspe","Kierspe","51.1333","7.5667","Germany","DE","DEU","North Rhine-Westphalia","","16422","1276256169"
"Petersberg","Petersberg","50.5667","9.7167","Germany","DE","DEU","Hesse","","16410","1276763295"
"Poing","Poing","48.1667","11.8167","Germany","DE","DEU","Bavaria","","16404","1276650408"
"Pocking","Pocking","48.4000","13.3167","Germany","DE","DEU","Bavaria","","16399","1276193940"
"Brakel","Brakel","51.7167","9.1833","Germany","DE","DEU","North Rhine-Westphalia","","16372","1276092395"
"Hude","Hude","53.1111","8.4625","Germany","DE","DEU","Lower Saxony","","16372","1276379256"
"Kirchlengern","Kirchlengern","52.2000","8.6331","Germany","DE","DEU","North Rhine-Westphalia","","16366","1276250400"
"Straelen","Straelen","51.4500","6.2667","Germany","DE","DEU","North Rhine-Westphalia","","16365","1276805801"
"Guben","Guben","51.9533","14.7167","Germany","DE","DEU","Brandenburg","","16363","1276800396"
"Sulzbach","Sulzbach","49.2833","7.0667","Germany","DE","DEU","Saarland","","16353","1276579983"
"Halver","Halver","51.1833","7.4667","Germany","DE","DEU","North Rhine-Westphalia","","16347","1276039349"
"Großostheim","Grossostheim","49.9167","9.0833","Germany","DE","DEU","Bavaria","","16342","1276880614"
"Bad Essen","Bad Essen","52.3214","8.3400","Germany","DE","DEU","Lower Saxony","","16339","1276585776"
"Erwitte","Erwitte","51.6167","8.3500","Germany","DE","DEU","North Rhine-Westphalia","","16333","1276225862"
"Elsen","Elsen","51.7333","8.6833","Germany","DE","DEU","North Rhine-Westphalia","","16323","1276679573"
"Bargteheide","Bargteheide","53.7167","10.2667","Germany","DE","DEU","Schleswig-Holstein","","16301","1276611028"
"Schmelz","Schmelz","49.4167","6.8333","Germany","DE","DEU","Saarland","","16301","1276565540"
"Wiefelstede","Wiefelstede","53.2581","8.1172","Germany","DE","DEU","Lower Saxony","","16282","1276114167"
"Oyten","Oyten","53.0611","9.0178","Germany","DE","DEU","Lower Saxony","","16258","1276791592"
"Wendlingen am Neckar","Wendlingen am Neckar","48.6747","9.3817","Germany","DE","DEU","Baden-Württemberg","","16258","1276408904"
"Bad Bentheim","Bad Bentheim","52.3031","7.1597","Germany","DE","DEU","Lower Saxony","","16251","1276319622"
"Künzelsau","Kunzelsau","49.2833","9.6833","Germany","DE","DEU","Baden-Württemberg","minor","16228","1276563190"
"Freiberg am Neckar","Freiberg am Neckar","48.9333","9.2000","Germany","DE","DEU","Baden-Württemberg","","16216","1276056473"
"Stahnsdorf","Stahnsdorf","52.3922","13.2167","Germany","DE","DEU","Brandenburg","","16203","1276819646"
"Alsfeld","Alsfeld","50.7511","9.2711","Germany","DE","DEU","Hesse","","16177","1276584676"
"Schlüchtern","Schluchtern","50.3500","9.5167","Germany","DE","DEU","Hesse","","16151","1276713332"
"Markranstädt","Markranstadt","51.3017","12.2211","Germany","DE","DEU","Saxony","","16132","1276832529"
"Michelstadt","Michelstadt","49.6786","9.0039","Germany","DE","DEU","Hesse","","16097","1276024719"
"Wendelstein","Wendelstein","49.3536","11.1483","Germany","DE","DEU","Bavaria","","16089","1276957789"
"Brüggen","Bruggen","51.2417","6.1822","Germany","DE","DEU","North Rhine-Westphalia","","16082","1276029002"
"Großenkneten","Grossenkneten","52.9500","8.2667","Germany","DE","DEU","Lower Saxony","","16079","1276069119"
"Marbach am Neckar","Marbach am Neckar","48.9333","9.2500","Germany","DE","DEU","Baden-Württemberg","","16053","1276176133"
"Eilenburg","Eilenburg","51.4608","12.6358","Germany","DE","DEU","Saxony","","16031","1276166351"
"Preetz","Preetz","54.2367","10.2822","Germany","DE","DEU","Schleswig-Holstein","","16024","1276274661"
"Zeulenroda","Zeulenroda","50.6486","11.9806","Germany","DE","DEU","Thuringia","","16021","1276933669"
"Aue","Aue","50.5881","12.7006","Germany","DE","DEU","Saxony","","16012","1276459690"
"Illingen","Illingen","49.3667","7.0333","Germany","DE","DEU","Saarland","","15998","1276359675"
"Weener","Weener","53.1692","7.3564","Germany","DE","DEU","Lower Saxony","","15997","1276425095"
"Füssen","Fussen","47.5667","10.7000","Germany","DE","DEU","Bavaria","","15985","1276059513"
"Erlensee","Erlensee","50.1333","8.9333","Germany","DE","DEU","Hesse","","15969","1276495268"
"Finsterwalde","Finsterwalde","51.6282","13.7102","Germany","DE","DEU","Brandenburg","","15968","1276493643"
"Süchteln","Suchteln","51.2833","6.3833","Germany","DE","DEU","North Rhine-Westphalia","","15941","1276796090"
"Schwarzenberg","Schwarzenberg","50.5453","12.7792","Germany","DE","DEU","Saxony","","15936","1276831560"
"Königslutter am Elm","Konigslutter am Elm","52.2500","10.8167","Germany","DE","DEU","Lower Saxony","","15933","1276192101"
"Eilendorf","Eilendorf","50.7794","6.1625","Germany","DE","DEU","North Rhine-Westphalia","","15892","1276960521"
"Walldorf","Walldorf","49.3000","8.6500","Germany","DE","DEU","Baden-Württemberg","","15892","1276002664"
"Wadern","Wadern","49.5167","6.8667","Germany","DE","DEU","Saarland","","15885","1276516463"
"Drensteinfurt","Drensteinfurt","51.7944","7.7392","Germany","DE","DEU","North Rhine-Westphalia","","15874","1276206694"
"Simmerath","Simmerath","50.6069","6.3000","Germany","DE","DEU","North Rhine-Westphalia","","15841","1276931162"
"Ascheberg","Ascheberg","51.7889","7.6200","Germany","DE","DEU","North Rhine-Westphalia","","15822","1276423917"
"Taucha","Taucha","51.3800","12.4936","Germany","DE","DEU","Saxony","","15816","1276068319"
"Breisach am Rhein","Breisach am Rhein","48.0333","7.5833","Germany","DE","DEU","Baden-Württemberg","","15793","1276880866"
"Rahden","Rahden","52.4167","8.6167","Germany","DE","DEU","North Rhine-Westphalia","","15773","1276217000"
"Garrel","Garrel","52.9581","8.0253","Germany","DE","DEU","Lower Saxony","","15762","1276561308"
"Hille","Hille","52.3331","8.7500","Germany","DE","DEU","North Rhine-Westphalia","","15728","1276307584"
"Lübbenau/Spreewald","Lubbenau/Spreewald","51.8667","13.9667","Germany","DE","DEU","Brandenburg","","15726","1276392829"
"Ribnitz-Damgarten","Ribnitz-Damgarten","54.2500","12.4667","Germany","DE","DEU","Mecklenburg-Western Pomerania","","15721","1276064199"
"Langenberg","Langenberg","51.3519","7.1217","Germany","DE","DEU","North Rhine-Westphalia","","15717","1276538956"
"Dieburg","Dieburg","49.9000","8.8500","Germany","DE","DEU","Hesse","","15699","1276337501"
"Ebersbach an der Fils","Ebersbach an der Fils","48.7147","9.5236","Germany","DE","DEU","Baden-Württemberg","","15692","1276554005"
"Schiffweiler","Schiffweiler","49.3667","7.1167","Germany","DE","DEU","Saarland","","15655","1276169477"
"Mindelheim","Mindelheim","48.0333","10.4667","Germany","DE","DEU","Bavaria","minor","15654","1276322308"
"Langenau","Langenau","48.4967","10.1200","Germany","DE","DEU","Baden-Württemberg","","15633","1276345648"
"Boppard","Boppard","50.2314","7.5908","Germany","DE","DEU","Rhineland-Palatinate","","15616","1276667317"
"Templin","Templin","53.1167","13.5000","Germany","DE","DEU","Brandenburg","","15599","1276089341"
"Epe","Epe","52.1833","7.0333","Germany","DE","DEU","North Rhine-Westphalia","","15589","1276072259"
"Bad Neustadt","Bad Neustadt","50.3219","10.2161","Germany","DE","DEU","Bavaria","minor","15558","1276106311"
"Eppelheim","Eppelheim","49.4000","8.6333","Germany","DE","DEU","Baden-Württemberg","","15555","1276579726"
